~Version
 VERS.        2.0                                          :CWLS Log ASCII Standard - Version 2.0
 WRAP.        NO                                           :One data record per depth sample.
~Well
#MNEM.UNIT      VALUE                    DESCRIPTION
#---------      ----------               -----------
 STRT.M       272.00000                                                                                      :START DEPTH
 STOP.M       1226.40000                                                                                     :STOP DEPTH
 STEP.M       0.10000                                                                                        :STEP
 NULL.        -999.25000                                                                                     :NULL VALUE
 COMP.                                                                                                       :Oil Company
 WELL.        INDARA-1                                                                                       :Non unique well name
  FLD.        N-INDR                                                                                         :Field name
  LOC.        83.629417, 26.008328                                                                           :Location
 PROV.                                                                                                       :Province
 SRVC.                                                                                                       :Service
 DATE.        2013-11-29                                                                                     :Date unloaded
  UWI.        N-INDR-1                                                                                       :Unique well id
~Curve
#MNEM.UNIT    VALUE                                        :DESCRIPTION
#----.----    ---------------                              :-------------------
 DEPT.M       00 001 00 00                                 :Depth Index
 TENS.LBS                                                  :
 BHVT.FT3                                                  :
 AHVT.FT3                                                  :
  MMK.00                                                   :
   BS.IN                                                   :
   SP.MV                                                   :
 CALI.IN                                                   :
 GRTC.API                                                  :
   GR.API                                                  :
 RHOB.G/CC                                                 :
 NPHI.PU                                                   :
 MSFL.OHMM                                                 :
  LLS.OHMM                                                 :
  LLD.OHMM                                                 :
   PE.00                                                   :
 DRHO.G/CC                                                 :
GR_DT.API                                                  :
  DTC.00                                                   :
~A       TENS         BHVT         AHVT          MMK           BS           SP         CALI         GRTC           GR         RHOB         NPHI         MSFL          LLS          LLD           PE         DRHO        GR_DT          DTC
# ...
    800.00000   1602.21460   1128.13500    424.37370      0.00000     12.25000      2.63020     12.06780     94.24390    115.79170      2.28770     34.15610      3.00320      7.11510      9.67790      2.85440      0.02940    123.83040    129.45360
    800.10000   1576.64420   1127.93540    424.30040      0.00000     12.25000      3.08940     12.03410     94.41300    113.58640      2.27120     35.57030      2.99320      7.14970      9.77000      2.84430      0.02920    121.58100    129.63220
    800.20000   1617.60330   1127.73500    424.22630      0.00000     12.25000      3.59310     12.06150     94.15280    112.05400      2.25690     35.04390      3.00850      7.29060      9.95780      2.87990      0.02940    121.43860    129.69180
    800.30000   1584.72390   1127.32950    424.07340      0.00000     12.25000      4.61230     12.22930     91.49220    114.46350      2.23850     34.72370      2.69810      7.57730     10.29450      3.03430      0.03060    125.67170    129.72670
    800.40000   1640.56690   1127.12440    423.99460      0.00000     12.25000      5.10570     12.36710     89.39060    114.92140      2.23830     34.27200      2.58480      7.66770     10.44970      3.10600      0.03130    130.48370    129.77190
    800.50000   1580.46090   1126.91820    423.91470      0.00000     12.25000      5.52510     12.38960     86.81210    112.68320      2.24830     34.07850      3.26560      7.79060     10.67450      3.16710      0.03280    130.31280    129.79740
    800.60000   1625.45040   1126.50830    423.75750      0.00000     12.25000      5.97840     12.51800     79.32530    100.21880      2.29350     31.61360      3.03900      8.01430     10.97160      3.28090      0.03750    123.33690    129.75140
    800.70000   1568.90990   1126.30590    423.68140      0.00000     12.25000      5.95870     12.35490     76.23330     93.96430      2.30580     31.53560      3.06530      7.96180     10.92480      3.31230      0.03820    117.78460    129.61890
    800.80000   1613.20720   1126.10490    423.60670      0.00000     12.25000      5.74510     12.15960     73.57080     90.27140      2.29980     30.82020      3.47160      7.87030     10.84200      3.26370      0.03670    112.44110    129.45660
    800.90000   1595.45070   1125.90390    423.53210      0.00000     12.25000      5.33950     12.09930     71.16420     89.41520      2.27990     32.23970      2.98460      7.81460     10.74200      3.17050      0.03520    103.41500    129.39370
    801.00000   1611.80430   1125.49600    423.37680      0.00000     12.25000      3.81690     12.09010     69.24910     90.67200      2.25170     33.56410      3.39760      7.81130     10.57140      3.03680      0.04580    100.93790    129.58060
    801.10000   1596.76780   1125.28660    423.29380      0.00000     12.25000      2.84520     12.20450     70.06450     91.94860      2.24990     32.83100      3.32440      7.65200     10.26930      3.06730      0.06060    102.76010    130.09080
    801.20000   1598.90890   1125.07280    423.20630      0.00000     12.25000      1.79230     12.32870     70.68120     93.91470      2.22640     32.53710      3.05360      7.42230      9.91150      3.08840      0.07930    105.43660    130.83830
    801.30000   1656.69380   1124.63290    423.01910      0.00000     12.25000     -0.14800     12.72680     73.61710     98.92710      2.09880     33.19820      2.41190      7.06320      9.28700      2.93450      0.12320    107.14500    131.58090
    801.40000   1618.04220   1124.41160    422.92410      0.00000     12.25000     -0.88060     12.60600     75.25490    100.39090      2.02540     33.90940      2.62840      6.87750      9.01090      2.78950      0.14170    106.12000    132.02530
    801.50000   1586.08760   1124.19140    422.83020      0.00000     12.25000     -1.45150     12.44970     76.40930    101.06610      1.99050     34.19410      2.66340      6.66870      8.73420      2.67010      0.14900    107.40130    131.97110
    801.60000   1646.01310   1123.75740    422.64890      0.00000     12.25000     -1.83540     12.72530     79.26370    101.25390      2.05980     34.64540      2.53340      6.38500      8.33530      2.63680      0.12770    112.78270    131.40260
    801.70000   1615.54830   1123.54280    422.56060      0.00000     12.25000     -1.67370     12.79110     80.28800    101.23050      2.12140     35.82610      2.53160      6.31260      8.22560      2.67980      0.10660    114.83280    130.47640
    801.80000   1613.97860   1123.32750    422.47160      0.00000     12.25000     -1.32100     12.92160     80.46130    101.12320      2.17810     33.96110      2.65050      6.28340      8.18900      2.73820      0.09220    115.80090    129.41550
    801.90000   1591.03520   1122.89330    422.29010      0.00000     12.25000     -0.38730     12.99140     79.49540    101.28460      2.23210     36.44090      2.53720      6.35460      8.29350      2.81920      0.07630    113.86470    128.39130
    802.00000   1641.17870   1122.67500    422.19810      0.00000     12.25000      0.05690     12.98360     79.25520    102.47950      2.24320     38.39980      2.48280      6.41160      8.37260      2.85820      0.06880    113.26680    127.47230
    802.10000   1583.11450   1122.45640    422.10570      0.00000     12.25000      0.41820     13.10370     79.77990    103.64750      2.24400     39.09070      2.42760      6.52530      8.53730      2.91450      0.05780    113.38070    126.65580
    802.20000   1607.06920   1122.01980    421.92180      0.00000     12.25000      0.84350     13.32960     79.48570    104.42030      2.23600     42.06770      2.81770      6.75090      8.84760      3.01920      0.03870    114.74740    125.94040
    802.30000   1596.04940   1121.80270    421.83110      0.00000     12.25000      0.99190     12.89550     78.87420    104.19120      2.23310     41.30430      3.23160      6.81810      8.93760      3.04740      0.03630    113.58000    125.36510
    802.40000   1619.78470   1121.58670    421.74140      0.00000     12.25000      1.06860     12.94200     78.92230    103.82710      2.23260     43.17190      3.39040      6.87030      9.01060      3.03920      0.03670    113.29530    124.99050
    802.50000   1612.07640   1121.37130    421.65240      0.00000     12.25000      1.06540     12.76070     79.17010    104.14220      2.23030     43.45510      3.49650      6.86720      9.00650      3.02170      0.03860    119.53090    124.84240
    802.60000   1615.16260   1120.93800    421.47160      0.00000     12.25000      0.70190     12.68330     78.85600    107.60510      2.21430     43.79700      3.40230      6.70430      8.78780      3.03130      0.04330    124.78900    124.89240
    802.70000   1620.46920   1120.71730    421.37720      0.00000     12.25000      0.30020     12.72500     78.23930    109.09050      2.19550     42.87170      3.33560      6.57110      8.61310      3.07460      0.05140    128.34820    125.08940
    802.80000   1607.02890   1120.49370    421.27980      0.00000     12.25000     -0.13870     12.78150     78.08310    110.40370      2.17660     42.92710      3.34790      6.44770      8.45110      3.13540      0.06490    131.44220    125.41360
    802.90000   1603.61740   1120.04160    421.08040      0.00000     12.25000     -0.94230     12.84240     78.41090    111.37490      2.13870     45.59720      3.48170      6.16790      8.10120      3.21550      0.10100    132.06870    125.89190
    803.00000   1598.19070   1119.81710    420.98220      0.00000     12.25000     -1.23510     12.82340     78.18580    111.82350      2.13060     47.05230      3.54890      6.10180      8.02180      3.19430      0.10880    130.98670    126.56410
    803.10000   1613.42020   1119.59580    420.88720      0.00000     12.25000     -1.44250     12.80280     78.51050    111.63140      2.12300     47.20500      3.56040      6.02730      7.93290      3.13280      0.10640    126.94350    127.43400
    803.20000   1611.19250   1119.16300    420.70710      0.00000     12.25000     -1.73670     12.73010     78.94220    109.11790      2.12620     48.57400      3.54980      6.03450      7.93990      2.97390      0.07410    119.81570    128.43790
