~Version
 VERS.        2.0                                          :CWLS Log ASCII Standard - Version 2.0
 WRAP.        NO                                           :One data record per depth sample.
~Well
#MNEM.UNIT      VALUE                    DESCRIPTION
#---------      ----------               -----------
 STRT.M       272.00000                                                                                      :START DEPTH
 STOP.M       1226.40000                                                                                     :STOP DEPTH
 STEP.M       0.10000                                                                                        :STEP
 NULL.        -999.25000                                                                                     :NULL VALUE
 COMP.                                                                                                       :Oil Company
 WELL.        INDARA-1                                                                                       :Non unique well name
  FLD.        N-INDR                                                                                         :Field name
  LOC.        83.629417, 26.008328                                                                           :Location
 PROV.                                                                                                       :Province
 SRVC.                                                                                                       :Service
 DATE.        2013-11-29                                                                                     :Date unloaded
  UWI.        N-INDR-1                                                                                       :Unique well id
~Curve
#MNEM.UNIT    VALUE                                        :DESCRIPTION
#----.----    ---------------                              :-------------------
 DEPT.M       00 001 00 00                                 :Depth Index
 TENS.LBS                                                  :
 BHVT.FT3                                                  :
 AHVT.FT3                                                  :
  MMK.00                                                   :
   BS.IN                                                   :
   SP.MV                                                   :
 CALI.IN                                                   :
 GRTC.API                                                  :
   GR.API                                                  :
 RHOB.G/CC                                                 :
 NPHI.PU                                                   :
 MSFL.OHMM                                                 :
  LLS.OHMM                                                 :
  LLD.OHMM                                                 :
   PE.00                                                   :
 DRHO.G/CC                                                 :
GR_DT.API                                                  :
  DTC.00                                                   :
~A       TENS         BHVT         AHVT          MMK           BS           SP         CALI         GRTC           GR         RHOB         NPHI         MSFL          LLS          LLD           PE         DRHO        GR_DT          DTC
# ...
    859.40000   1636.15720    971.10210    365.74370      0.00000     12.25000     12.53760     12.00220     48.36820     80.95250      2.09790     39.46030      2.20090     10.81410     15.37600      2.59780      0.01240     85.59070    118.91230
    859.50000   1644.37720    970.71640    365.61060      0.00000     12.25000     12.00130     12.02050     46.85110     79.70140      2.14490     37.01410      4.06640     11.68230     16.59080      2.73880      0.01580     85.56230    111.19790
    859.60000   1639.46940    970.52230    365.54290      0.00000     12.25000     11.43080     12.01780     46.75060     79.52590      2.19280     35.80920      4.72100     11.90530     16.94260      2.86550      0.01830     83.93930    104.23720
    859.70000   1633.89000    970.32790    365.47480      0.00000     12.25000     10.64970     12.05620     47.00050     79.59150      2.24650     35.28800      5.41690     12.20060     17.40690      3.03930      0.02160     82.23090     99.51860
    859.80000   1667.67980    970.13340    365.40660      0.00000     12.25000      9.65010     12.11650     47.25380     80.12770      2.29730     33.42420      5.92460     12.28150     17.49400      3.24030      0.02410     82.22140     97.42060
    859.90000   1645.81370    969.74390    365.26980      0.00000     12.25000      7.33010     12.11980     48.44630     83.15470      2.34600     31.87940      4.12510     11.72690     16.51290      3.51280      0.02190     83.07560     98.42890
    860.00000   1641.29160    969.54910    365.20130      0.00000     12.25000      6.15170     12.12330     49.77500     85.47490      2.33790     31.48040      3.97520     11.14920     15.67830      3.53960      0.01650     82.67700    101.70380
    860.10000   1631.91430    969.35420    365.13280      0.00000     12.25000      5.06580     12.13170     51.09590     87.65900      2.32280     31.87390      4.13540     10.64830     14.94790      3.50220      0.01060     82.53460    106.45860
    860.20000   1675.30760    968.96520    364.99630      0.00000     12.25000      3.33670     12.14450     54.11040     93.92290      2.30030     31.67890      4.09400      9.82130     13.74140      3.33720      0.00270     85.39140    110.01410
    860.30000   1647.92190    968.77120    364.92860      0.00000     12.25000      2.67120     12.15490     56.07210     98.01730      2.29120     30.35610      3.71860      9.42780     13.24230      3.18910      0.00150     90.80140    112.07620
    860.40000   1651.07420    968.57760    364.86130      0.00000     12.25000      2.17710     12.13480     57.51400    103.01030      2.27360     29.94230      3.20490      9.20220     12.97110      3.00940      0.00140     98.37530    112.57280
    860.50000   1635.29990    968.19110    364.72750      1.00000     12.25000      1.41810     12.16750     60.77940    109.88580      2.23800     30.16870      3.24810      9.09790     12.76910      2.68800      0.00400    106.83180    112.67360
    860.60000   1636.78260    967.99810    364.66080      0.00000     12.25000      1.04330     12.17740     62.51560    111.12540      2.23990     29.22650      3.47850      9.09300     12.72620      2.66750      0.00640    107.65760    112.43270
    860.70000   1678.47360    967.80520    364.59430      0.00000     12.25000      0.60230     12.16710     63.07580    108.98060      2.25810     28.30950      3.97530      8.94370     12.50470      2.74980      0.00920    106.00610    111.96220
    860.80000   1635.23950    967.41960    364.46120      0.00000     12.25000     -0.57510     12.28390     62.68650    103.36290      2.30840     28.57710      5.05480      8.45080     11.72830      2.99720      0.01440    103.95600    111.49690
    860.90000   1693.15750    967.22700    364.39500      0.00000     12.25000     -1.21180     12.24740     62.57040    100.55730      2.32470     29.69380      4.48450      8.14520     11.20120      3.06500      0.01680    100.79550    111.33170
    861.00000   1676.36550    967.03490    364.32920      0.00000     12.25000     -1.91090     12.24690     62.72340     99.99880      2.33580     30.59440      4.41910      7.80420     10.66150      3.06480      0.01900     98.00510    111.68940
    861.10000   1651.53990    966.65130    364.19830      0.00000     12.25000     -3.23410     12.20010     64.12540    100.04310      2.34450     33.65250      3.80720      7.19430      9.76700      3.00890      0.02150     95.44250    112.89170
    861.20000   1680.08940    966.46000    364.13330      0.00000     12.25000     -3.86160     12.19540     66.71570    102.87910      2.34140     34.30370      3.44700      6.92490      9.33350      2.98570      0.02180     97.15090    115.49800
    861.30000   1667.02140    966.26880    364.06840      0.00000     12.25000     -4.43020     12.19430     70.68400    106.98720      2.33480     34.23720      3.36980      6.70280      8.96200      2.99080      0.02330     97.74880    119.37170
    861.40000   1686.34740    966.07780    364.00370      0.00000     12.25000     -4.83490     12.25110     75.24130    113.03360      2.32520     34.92650      3.28880      6.57650      8.76010      3.01230      0.02600    105.97760    123.72380
    861.50000   1665.74450    965.69630    363.87480      0.00000     12.25000     -5.25210     12.81310     83.58450    123.59280      2.30830     38.32600      2.90600      6.39210      8.45210      3.10020      0.03140    112.04240    127.01140
    861.60000   1702.31470    965.50590    363.81080      0.00000     12.25000     -5.18930     12.84840     86.00350    126.03890      2.29910     39.20660      2.87560      6.35160      8.36040      3.12840      0.03140    121.15390    128.93130
    861.70000   1659.71310    965.31560    363.74680      0.00000     12.25000     -5.02060     12.28950     86.67360    128.00450      2.28830     40.65300      2.92460      6.30830      8.28190      3.12920      0.03020    128.87020    129.68660
    861.80000   1762.11410    964.93490    363.61870      0.00000     12.25000     -4.43090     11.81460     86.02260    131.71710      2.26870     41.90810      3.03860      6.24830      8.18630      3.01700      0.02860    144.92910    129.94820
    861.90000   1666.74850    964.74410    363.55430      0.00000     12.25000     -4.11870     11.73100     85.96780    132.87080      2.26300     41.86970      3.28460      6.27140      8.21070      2.94720      0.03080    151.13630    129.80290
    862.00000   1705.20730    964.55300    363.48950      0.00000     12.25000     -3.82550     11.70520     86.12170    130.11340      2.26350     41.99760      3.30770      6.29100      8.23520      2.88530      0.03460    156.94480    129.18320
    862.10000   1647.17690    964.16880    363.35790      0.00000     12.25000     -3.31560     11.69630     86.14190    122.28670      2.27180     38.69120      3.39960      6.47040      8.50250      2.81900      0.04430    157.31500    127.38670
    862.20000   1730.66480    963.97560    363.29100      0.00000     12.25000     -3.21880     11.72270     85.73400    119.02410      2.27840     38.60740      3.46010      6.53690      8.59720      2.77510      0.04560    150.69970    124.34730
    862.30000   1708.81880    963.78170    363.22350      0.00000     12.25000     -3.16100     11.76580     84.85790    116.92680      2.28400     39.52380      3.54610      6.65830      8.76730      2.71990      0.04250    142.84110    120.36720
    862.40000   1671.61020    963.39200    363.08630      0.00000     12.25000     -3.27500     11.78600     80.65250    113.40470      2.30210     38.91770      4.07390      6.79640      8.99140      2.57880      0.02770    133.24560    117.01680
    862.50000   1672.88060    963.19660    363.01730      0.00000     12.25000     -3.35830     11.80440     78.93930    111.01390      2.31080     38.32990      4.17160      6.78010      9.01390      2.52950      0.02070    135.52340    114.69360
    862.60000   1675.04200    963.00110    362.94810      0.00000     12.25000     -3.40500     11.87870     77.86960    109.15610      2.31700     37.65270      4.19740      6.73900      9.01340      2.49970      0.01630    136.29220    113.33660
