~Version
 VERS.        2.0                                          :CWLS Log ASCII Standard - Version 2.0
 WRAP.        NO                                           :One data record per depth sample.
~Well
#MNEM.UNIT      VALUE                    DESCRIPTION
#---------      ----------               -----------
 STRT.M       272.00000                                                                                      :START DEPTH
 STOP.M       1226.40000                                                                                     :STOP DEPTH
 STEP.M       0.10000                                                                                        :STEP
 NULL.        -999.25000                                                                                     :NULL VALUE
 COMP.                                                                                                       :Oil Company
 WELL.        INDARA-1                                                                                       :Non unique well name
  FLD.        N-INDR                                                                                         :Field name
  LOC.        83.629417, 26.008328                                                                           :Location
 PROV.                                                                                                       :Province
 SRVC.                                                                                                       :Service
 DATE.        2013-11-29                                                                                     :Date unloaded
  UWI.        N-INDR-1                                                                                       :Unique well id
~Curve
#MNEM.UNIT    VALUE                                        :DESCRIPTION
#----.----    ---------------                              :-------------------
 DEPT.M       00 001 00 00                                 :Depth Index
 TENS.LBS                                                  :
 BHVT.FT3                                                  :
 AHVT.FT3                                                  :
  MMK.00                                                   :
   BS.IN                                                   :
   SP.MV                                                   :
 CALI.IN                                                   :
 GRTC.API                                                  :
   GR.API                                                  :
 RHOB.G/CC                                                 :
 NPHI.PU                                                   :
 MSFL.OHMM                                                 :
  LLS.OHMM                                                 :
  LLD.OHMM                                                 :
   PE.00                                                   :
 DRHO.G/CC                                                 :
GR_DT.API                                                  :
  DTC.00                                                   :
~A       TENS         BHVT         AHVT          MMK           BS           SP         CALI         GRTC           GR         RHOB         NPHI         MSFL          LLS          LLD           PE         DRHO        GR_DT          DTC
# ...
    377.60000   1065.87450   2251.81030    848.23710      0.00000     12.25000     35.44800     12.18800     45.04690     75.95950      2.15920     40.59500      3.49200     21.90510     35.21200      3.14490      0.04210     80.45130    127.60590
    377.70000   1049.50130   2251.41280    848.09210      0.00000     12.25000     34.48480     12.22360     47.16450     82.07780      2.20700     39.55690      2.97900     21.51870     34.23270      3.32860      0.02120     84.65590    124.22340
    377.80000   1061.35890   2251.21460    848.02010      0.00000     12.25000     33.72150     12.15560     48.65310     83.82600      2.21440     39.49650      2.67860     20.39050     32.38340      3.32920      0.01830     88.05840    123.12450
    377.90000   1045.90990   2251.01710    847.94890      0.00000     12.25000     32.83240     12.12520     50.79860     85.09310      2.21530     38.06690      2.25980     18.92260     30.16370      3.28850      0.01630     91.44200    125.00920
    378.00000   1056.82970   2250.62450    847.80900      0.00000     12.25000     31.21490     12.11290     56.00120     88.70500      2.18600     37.97480      1.73460     16.22520     26.07230      3.15280      0.01590     99.01590    129.83000
    378.10000   1048.00500   2250.42920    847.74000      0.00000     12.25000     30.64660     12.08860     57.73220     93.20420      2.15560     39.99010      1.65680     14.88500     23.86280      3.04930      0.01390    101.75880    136.22870
    378.20000   1049.38180   2250.23410    847.67130      0.00000     12.25000     30.27040     12.03500     59.19590     98.91750      2.11990     40.66170      1.64980     13.79420     22.06690      2.92270      0.01170    105.01900    142.42050
    378.30000   1048.51030   2249.84380    847.53360      0.00000     12.25000     29.75030     12.02280     63.76070    108.91180      2.06060     43.27730      1.71600     11.44520     18.07260      2.66340      0.00680    111.75770    147.88810
    378.40000   1064.57750   2249.64820    847.46440      0.00000     12.25000     29.42960     12.03040     66.60030    111.06970      2.04400     41.78510      1.74510     10.80180     16.98680      2.56740      0.00520    113.77460    152.22090
    378.50000   1058.31300   2249.45190    847.39450      0.00000     12.25000     28.99330     12.05040     69.71740    112.32970      2.03470     39.35250      1.75160      9.69990     15.12920      2.50000      0.00390    113.61800    155.27670
    378.60000   1060.08860   2249.05660    847.25200      0.00000     12.25000     27.74350     12.04630     78.82360    118.98540      2.03720     38.34500      1.77730      8.60070     13.27160      2.46090      0.00240    115.83890    156.43140
    378.70000   1063.81250   2248.85720    847.17880      0.00000     12.25000     26.91890     12.05030     84.09700    126.90790      2.05340     39.13660      1.95430      8.38260     12.78740      2.50640      0.00260    121.11590    156.15810
    378.80000   1053.55770   2248.65620    847.10410      0.00000     12.25000     25.86570     12.07840     88.48550    135.77170      2.08310     39.50230      2.18010      8.27700     12.41220      2.58840      0.00390    130.97720    154.95570
    378.90000   1099.21230   2248.45360    847.02790      0.00000     12.25000     24.63830     12.12260     92.28990    143.14210      2.12380     37.25410      2.44240      8.27800     12.19160      2.68360      0.00610    152.67380    153.50550
    379.00000   1043.33620   2248.04490    846.87190      0.00000     12.25000     21.80270     12.31420     96.96170    149.31030      2.19520     35.13520      2.89780      8.35820     11.97550      2.82070      0.01080    159.73520    152.02670
    379.10000   1059.75610   2247.84010    846.79340      0.00000     12.25000     20.37960     12.38820     97.23960    149.08310      2.21220     37.73700      2.96810      8.41570     11.94850      2.85880      0.01210    161.74730    150.72570
    379.20000   1070.74210   2247.63570    846.71530      0.00000     12.25000     19.19100     12.38560     97.19500    148.23680      2.21470     40.92370      2.95740      8.46310     11.95270      2.90140      0.01290    162.41650    149.68710
    379.30000   1067.16430   2247.22710    846.55930      0.00000     12.25000     17.51110     12.34450     95.58600    143.71580      2.20290     44.52700      2.81050      8.53740     11.98360      3.01510      0.01450    162.53980    148.82310
    379.40000   1059.53650   2247.02200    846.48050      0.00000     12.25000     17.08900     12.33550     94.54110    141.22990      2.19590     44.39130      2.68530      8.50520     11.92300      3.07460      0.01690    162.22190    148.07970
    379.50000   1052.02830   2246.81590    846.40070      0.00000     12.25000     16.85710     12.31450     94.21850    138.86520      2.18860     48.18330      2.55560      8.42450     11.78700      3.10960      0.01850    159.83490    147.76090
    379.60000   1054.11630   2246.40190    846.23940      0.00000     12.25000     16.79100     12.36440     92.90040    136.80080      2.15810     50.92710      2.56020      8.24270     11.51820      3.10440      0.01960    154.32060    148.25730
    379.70000   1058.71890   2246.19480    846.15860      0.00000     12.25000     16.93280     12.25060     91.79350    135.61710      2.13640     52.20100      2.39030      8.05330     11.27190      3.07800      0.02160    150.08280    149.89110
    379.80000   1066.84530   2245.98750    846.07750      0.00000     12.25000     17.06990     12.17160     91.50170    134.71330      2.11280     52.04450      2.20200      7.87630     11.05590      3.04130      0.02790    148.30790    152.27160
    379.90000   1056.63670   2245.56860    845.91110      0.00000     12.25000     17.54280     12.20330     91.78770    132.74380      2.07900     55.06310      1.54620      7.54370     10.68120      2.95760      0.04440    144.49250    155.07920
    380.00000   1066.10050   2245.35620    845.82500      0.00000     12.25000     17.84100     12.40900     92.09810    131.87450      2.06850     56.44860      1.29960      7.41220     10.52070      2.92660      0.04530    143.44850    157.59770
    380.10000   1079.19460   2245.14280    845.73800      0.00000     12.25000     18.13750     12.68820     92.85400    131.38940      2.06120     54.34100      1.20310      7.31170     10.39330      2.93030      0.03940    142.17670    159.46690
    380.20000   1078.41650   2244.71830    845.56600      0.00000     12.25000     18.85170     12.36530     93.45730    130.94990      2.06030     48.82350      1.67210      7.19970     10.27670      3.03800      0.02630    142.56580    160.18520
    380.30000   1100.68850   2244.50950    845.48360      0.00000     12.25000     19.20720     12.00600     93.60730    132.33880      2.06210     50.42300      1.94510      7.20090     10.29850      3.09440      0.02720    142.61800    160.28080
    380.40000   1071.95910   2244.30370    845.40410      0.00000     12.25000     19.58260     12.12140     94.46480    134.56550      2.06560     52.01180      2.16530      7.23800     10.36700      3.12220      0.03190    143.04990    160.10000
    380.50000   1061.51870   2244.09890    845.32570      0.00000     12.25000     20.02950     12.13060     95.71280    136.23480      2.06790     57.05060      2.49690      7.29680     10.47320      3.11290      0.03630    142.11970    160.01570
    380.60000   1058.29930   2243.68600    845.16540      0.00000     12.25000     20.90270     12.13780     96.58080    136.81860      2.05150     60.19340      2.65570      7.44790     10.78510      3.02480      0.03840    142.54210    159.60400
    380.70000   1070.87510   2243.47490    845.08060      0.00000     12.25000     21.28790     12.28250     97.15310    135.82810      2.04270     55.54500      2.64760      7.57540     10.99860      2.97390      0.04540    142.60380    158.77320
    380.80000   1088.21280   2243.25950    844.99160      1.00000     12.25000     21.55860     12.39750     97.55630    133.69980      2.03520     54.67030      2.94610      7.73440     11.24520      2.92790      0.06200    143.34880    157.41560
