~Version
 VERS.        2.0                                          :CWLS Log ASCII Standard - Version 2.0
 WRAP.        NO                                           :One data record per depth sample.
~Well
#MNEM.UNIT      VALUE                    DESCRIPTION
#---------      ----------               -----------
 STRT.M       272.00000                                                                                      :START DEPTH
 STOP.M       1226.40000                                                                                     :STOP DEPTH
 STEP.M       0.10000                                                                                        :STEP
 NULL.        -999.25000                                                                                     :NULL VALUE
 COMP.                                                                                                       :Oil Company
 WELL.        INDARA-1                                                                                       :Non unique well name
  FLD.        N-INDR                                                                                         :Field name
  LOC.        83.629417, 26.008328                                                                           :Location
 PROV.                                                                                                       :Province
 SRVC.                                                                                                       :Service
 DATE.        2013-11-29                                                                                     :Date unloaded
  UWI.        N-INDR-1                                                                                       :Unique well id
~Curve
#MNEM.UNIT    VALUE                                        :DESCRIPTION
#----.----    ---------------                              :-------------------
 DEPT.M       00 001 00 00                                 :Depth Index
 TENS.LBS                                                  :
 BHVT.FT3                                                  :
 AHVT.FT3                                                  :
  MMK.00                                                   :
   BS.IN                                                   :
   SP.MV                                                   :
 CALI.IN                                                   :
 GRTC.API                                                  :
   GR.API                                                  :
 RHOB.G/CC                                                 :
 NPHI.PU                                                   :
 MSFL.OHMM                                                 :
  LLS.OHMM                                                 :
  LLD.OHMM                                                 :
   PE.00                                                   :
 DRHO.G/CC                                                 :
GR_DT.API                                                  :
  DTC.00                                                   :
~A       TENS         BHVT         AHVT          MMK           BS           SP         CALI         GRTC           GR         RHOB         NPHI         MSFL          LLS          LLD           PE         DRHO        GR_DT          DTC
# ...
    618.50000   1355.62820   1608.04380    603.38790      0.00000     12.25000     -7.25300     12.43050     85.66800    123.43920      2.26860     32.71700      3.85890      7.27100     10.22080      3.03830     -0.00510    136.40610    136.75490
    618.60000   1348.39210   1607.83780    603.30810      0.00000     12.25000     -7.17870     12.42120     86.10040    123.80510      2.27340     33.54730      3.78700      7.27680     10.16630      3.04970     -0.00810    136.88060    138.63230
    618.70000   1371.98120   1607.63210    603.22870      0.00000     12.25000     -7.09710     12.43560     86.04580    123.74490      2.27650     32.59260      3.72430      7.26740     10.08470      3.03860     -0.01120    132.12560    140.89030
    618.80000   1351.66460   1607.21980    603.06920      0.00000     12.25000     -6.79100     12.48270     85.72440    122.10910      2.26990     32.35760      3.34540      7.16480      9.79280      3.04440     -0.00670    130.44570    143.30720
    618.90000   1410.57950   1607.01220    602.98780      0.00000     12.25000     -6.64880     12.47930     86.11630    119.97560      2.26220     33.54690      3.13640      7.04960      9.54140      3.08240     -0.00010    129.25930    145.80370
    619.00000   1347.88680   1606.80160    602.90360      0.00000     12.25000     -6.50010     12.51730     86.38110    118.82590      2.24070     33.05660      2.98720      6.90270      9.27400      3.13370      0.00600    129.68640    148.25200
    619.10000   1353.41360   1606.36510    602.71980      0.00000     12.25000     -6.22670     12.63910     85.94700    117.48640      2.15520     35.75710      2.10870      6.37630      8.49100      3.08570      0.00510    121.86570    150.52460
    619.20000   1369.36060   1606.13620    602.61720      0.00000     12.25000     -6.19540     12.87290     86.74440    118.41830      2.09940     38.51350      1.88120      6.21200      8.26040      2.98850      0.00380    115.65860    152.33460
    619.30000   1371.22970   1605.90440    602.51180      0.00000     12.25000     -6.10550     13.75960     88.53720    118.91700      2.05720     40.26600      1.81590      5.93500      7.87370      2.87210      0.00530    112.01400    153.80970
    619.40000   1375.40560   1605.44790    602.30790      0.00000     12.25000     -5.77750     15.05080     92.74900    116.96620      2.02260     45.96760      1.82330      5.73010      7.56040      2.75910      0.01680    116.08970    155.07770
    619.50000   1374.03600   1605.22920    602.21560      0.00000     12.25000     -5.57450     15.42140     93.06980    114.20480      2.02520     48.36700      1.88060      5.73590      7.52730      2.74360      0.02050    119.41060    156.14620
    619.60000   1399.02140   1605.01950    602.13220      0.00000     12.25000     -5.30780     14.66220     91.53300    111.89610      2.03420     47.65850      1.98250      5.75840      7.51490      2.75500      0.02390    120.58690    156.79990
    619.70000   1358.46750   1604.60990    601.97510      0.00000     12.25000     -4.76820     12.72090     85.46720    114.46770      2.04790     51.25500      1.89010      5.81270      7.51830      2.77700      0.03000    120.82680    156.77660
    619.80000   1404.24800   1604.40500    601.89660      0.00000     12.25000     -4.53600     12.63240     83.25410    116.53560      2.05210     52.22980      1.71730      5.82790      7.51030      2.82080      0.03770    122.18060    156.20820
    619.90000   1365.76990   1604.19850    601.81630      0.00000     12.25000     -4.32950     12.64560     81.74640    118.36210      2.04540     47.30110      1.66250      5.82920      7.49650      2.86160      0.04600    126.67520    155.27620
    620.00000   1432.41250   1603.98990    601.73400      0.00000     12.25000     -4.20180     12.70820     80.47770    118.48720      2.03920     47.91460      1.64210      5.80020      7.45460      2.91500      0.05920    133.18790    154.24490
    620.10000   1391.02730   1603.56740    601.56410      0.00000     12.25000     -4.19960     12.67040     77.44320    117.53120      2.03740     52.72890      1.58500      5.76780      7.38720      2.97310      0.08260    133.22660    152.62340
    620.20000   1371.64870   1603.35330    601.47630      0.00000     12.25000     -4.28200     12.62260     76.28550    117.09950      2.05310     53.39740      1.74840      5.79320      7.40180      2.98640      0.08860    131.51820    150.36580
    620.30000   1385.28820   1603.13730    601.38670      0.00000     12.25000     -4.29590     12.77720     76.35500    116.04700      2.07310     53.56940      1.87550      5.84530      7.45410      2.98440      0.08430    129.35420    147.44960
    620.40000   1418.20730   1602.70210    601.20410      0.00000     12.25000     -4.17290     13.50540     77.67840    112.83850      2.09190     51.51810      1.92700      6.00480      7.63870      2.98210      0.06110    129.78130    144.97980
    620.50000   1455.28920   1602.48390    601.11210      0.00000     12.25000     -4.04920     13.55520     78.07100    111.10850      2.08180     49.85710      2.00100      6.10780      7.76210      2.96180      0.05290    130.94870    143.08330
    620.60000   1448.81870   1602.26550    601.02000      0.00000     12.25000     -3.86060     13.29120     78.33680    110.51820      2.06320     48.11890      2.05080      6.19760      7.87360      2.93020      0.05480    132.62860    141.79850
    620.70000   1432.01950   1601.82790    600.83500      0.00000     12.25000     -3.43220     12.89250     79.08080    110.74730      2.04250     50.19450      2.28610      6.29170      8.01380      2.85580      0.07070    130.86330    140.62250
    620.80000   1402.81860   1601.60770    600.74110      0.00000     12.25000     -3.18040     13.10790     79.13190    111.53750      2.04320     52.33250      2.25970      6.31150      8.05270      2.84930      0.07260    128.04440    139.56190
    620.90000   1351.07890   1601.38640    600.64610      0.00000     12.25000     -3.01960     13.19030     79.40970    112.72930      2.04480     49.06510      2.12140      6.31530      8.07090      2.86720      0.06510    124.04870    138.63190
    621.00000   1368.67540   1600.94100    600.45360      0.00000     12.25000     -2.90890     13.23860     78.91140    114.34990      2.00440     46.17720      1.52740      6.24410      8.03390      2.88150      0.05030    119.48350    137.80570
    621.10000   1391.18710   1600.71960    600.35850      0.00000     12.25000     -2.95140     13.12750     77.55000    114.89330      1.96270     47.56800      1.50340      6.22470      8.03750      2.83440      0.05280    117.43340    136.99100
    621.20000   1384.74270   1600.50100    600.26620      0.00000     12.25000     -3.00090     12.76770     76.80390    114.77270      1.92280     46.73730      1.56600      6.25080      8.09360      2.75610      0.06050    116.33240    135.96860
    621.30000   1371.08300   1600.07410    600.09190      0.00000     12.25000     -2.91730     13.31590     77.72540    113.75720      1.91730     48.00520      2.19710      6.41840      8.37090      2.67000      0.06290    112.86820    134.52720
    621.40000   1357.34340   1599.86580    600.01000      0.00000     12.25000     -2.83420     13.36550     77.90330    111.74620      1.95810     46.74630      2.47600      6.56050      8.57900      2.69810      0.05260    113.86470    132.55900
    621.50000   1378.78410   1599.65990    599.93040      0.00000     12.25000     -2.69040     13.06980     77.76630    110.99770      2.01290     48.18010      2.70070      6.75950      8.86310      2.76050      0.03980    114.86130    130.24950
    621.60000   1386.16630   1599.45520    599.85200      0.00000     12.25000     -2.48450     12.96470     77.14410    111.19920      2.07030     44.36370      2.88330      6.94330      9.13340      2.83380      0.03090    118.60550    127.79330
    621.70000   1383.66530   1599.04940    599.69890      0.00000     12.25000     -1.88710     12.42410     76.20730    112.43960      2.16480     41.62160      3.21700      7.40770      9.91040      2.96720      0.02770    119.18920    125.33700
