~Version
 VERS.        2.0                                          :CWLS Log ASCII Standard - Version 2.0
 WRAP.        NO                                           :One data record per depth sample.
~Well
#MNEM.UNIT      VALUE                    DESCRIPTION
#---------      ----------               -----------
 STRT.M       272.00000                                                                                      :START DEPTH
 STOP.M       1226.40000                                                                                     :STOP DEPTH
 STEP.M       0.10000                                                                                        :STEP
 NULL.        -999.25000                                                                                     :NULL VALUE
 COMP.                                                                                                       :Oil Company
 WELL.        INDARA-1                                                                                       :Non unique well name
  FLD.        N-INDR                                                                                         :Field name
  LOC.        83.629417, 26.008328                                                                           :Location
 PROV.                                                                                                       :Province
 SRVC.                                                                                                       :Service
 DATE.        2013-11-29                                                                                     :Date unloaded
  UWI.        N-INDR-1                                                                                       :Unique well id
~Curve
#MNEM.UNIT    VALUE                                        :DESCRIPTION
#----.----    ---------------                              :-------------------
 DEPT.M       00 001 00 00                                 :Depth Index
 TENS.LBS                                                  :
 BHVT.FT3                                                  :
 AHVT.FT3                                                  :
  MMK.00                                                   :
   BS.IN                                                   :
   SP.MV                                                   :
 CALI.IN                                                   :
 GRTC.API                                                  :
   GR.API                                                  :
 RHOB.G/CC                                                 :
 NPHI.PU                                                   :
 MSFL.OHMM                                                 :
  LLS.OHMM                                                 :
  LLD.OHMM                                                 :
   PE.00                                                   :
 DRHO.G/CC                                                 :
GR_DT.API                                                  :
  DTC.00                                                   :
~A       TENS         BHVT         AHVT          MMK           BS           SP         CALI         GRTC           GR         RHOB         NPHI         MSFL          LLS          LLD           PE         DRHO        GR_DT          DTC
# ...
   1159.70000   2002.61540    170.12440     62.59140      0.00000     12.25000      2.25480     12.27720    101.43360    132.05060      2.35670     26.84120     18.62180     13.32660     14.67870      2.81670      0.01270    157.83700     76.48070
   1159.80000   2002.15030    169.92650     62.51980      0.00000     12.25000      2.29100     12.27880     99.94720    130.29460      2.38730     26.67950     21.97990     14.73940     16.58040      2.88640      0.01670    151.56340     73.98440
   1159.90000   1986.12920    169.52840     62.37440      0.00000     12.25000      2.29210     12.27040     95.53490    128.62030      2.41840     25.94340     21.74160     17.68610     20.52790      2.90380      0.02710    148.62110     71.85670
   1160.00000   1990.24600    169.32880     62.30120      0.00000     12.25000      2.18390     12.20440     92.74990    126.59290      2.42880     24.91930     21.88560     18.99650     22.24480      2.84380      0.03270    146.59000     70.29850
   1160.10000   1984.77320    169.12960     62.22820      0.00000     12.25000      2.06660     12.19910     90.19970    123.61320      2.44400     23.66690     21.10670     20.77560     24.36010      2.75990      0.03730    146.09650     69.22350
   1160.20000   1989.34130    168.73260     62.08390      0.00000     12.25000      1.73650     12.24830     85.16800    113.17040      2.48610     20.87090     25.98910     24.09970     28.18060      2.64600      0.03900    141.57880     68.42770
   1160.30000   1993.50490    168.53490     62.01250      0.00000     12.25000      1.56180     12.17170     83.32290    106.74030      2.50660     19.39220     30.58120     25.97280     30.18800      2.65200      0.03560    136.06440     67.78890
   1160.40000   1988.63020    168.33750     61.94150      0.00000     12.25000      1.42420     12.14010     82.13060    102.34110      2.52350     18.22640     34.41040     27.41510     31.76290      2.69780      0.02990    128.13930     67.29380
   1160.50000   1988.78930    167.94400     61.80060      0.00000     12.25000      1.06040     12.19370     83.14780    102.05820      2.54770     16.77480     35.18370     27.62510     31.75630      2.78310      0.01780    113.95960     67.01950
   1160.60000   1988.43740    167.74840     61.73130      0.00000     12.25000      0.97130     12.21010     84.93150    106.33880      2.55260     16.14910     29.22940     26.19980     29.96170      2.78750      0.01080    112.47900     67.09030
   1160.70000   1989.39470    167.55370     61.66290      0.00000     12.25000      0.85190     12.21830     86.85430    111.49790      2.54690     16.13740     23.98320     24.19940     27.63430      2.75430      0.00410    116.28500     67.55870
   1160.80000   1992.34120    167.16650     61.52830      0.00000     12.25000      0.65190     12.17880     90.41100    119.41780      2.51170     16.77330     17.59560     20.17190     23.55930      2.67120     -0.00920    127.03840     68.35670
   1160.90000   1990.86430    166.97300     61.46110      0.00000     12.25000      0.57440     12.16480     92.12220    120.07930      2.48720     17.48780     13.82730     18.31820     21.79740      2.64410     -0.01080    130.73990     69.32680
   1161.00000   1986.21620    166.77920     61.39370      0.00000     12.25000      0.48290     12.14580     93.36610    118.07030      2.46890     17.86750     13.20600     17.27140     20.74810      2.63640     -0.00730    133.36890     70.29980
   1161.10000   2002.44910    166.39100     61.25810      0.00000     12.25000      0.40230     12.15670     94.62900    115.00460      2.44300     18.92500     11.58620     16.26120     19.43190      2.63630      0.01480    134.04280     71.17850
   1161.20000   1997.74120    166.19700     61.19050      0.00000     12.25000      0.36000     12.17930     95.45360    115.74070      2.43630     19.50170     12.06850     16.23880     19.22920      2.62800      0.02630    133.94790     71.93960
   1161.30000   2024.20210    166.00350     61.12320      0.00000     12.25000      0.31000     12.19760     96.94640    119.09280      2.43080     19.03210     13.63660     16.37290     19.13010      2.61110      0.03330    133.14120     72.59060
   1161.40000   2015.12490    165.81040     61.05650      0.00000     12.25000      0.26170     12.18460     99.40210    123.30400      2.42760     19.09360     13.64210     16.48860     19.04340      2.59020      0.03340    137.14640     73.12380
   1161.50000   2009.06630    165.42510     60.92380      0.00000     12.25000      0.29780     12.16410    106.63230    132.07430      2.42910     18.32390     14.25980     16.44980     18.72680      2.56640      0.02160    141.94890     73.52930
   1161.60000   2044.00050    165.23250     60.85760      0.00000     12.25000      0.41770     12.17350    110.44350    135.68640      2.42970     18.32470     13.92080     16.37670     18.56420      2.55840      0.01640    145.60300     73.83940
   1161.70000   2029.64260    165.03990     60.79130      0.00000     12.25000      0.61210     12.17110    114.73500    139.53750      2.42730     18.46090     12.13870     16.21710     18.28250      2.55030      0.01400    149.18110     74.12450
   1161.80000   1997.30870    164.65440     60.65840      0.00000     12.25000      0.97870     12.17920    122.20130    149.91530      2.41310     19.13810     10.84160     15.92370     17.86100      2.53970      0.01660    153.61350     74.42720
   1161.90000   2054.06230    164.46160     60.59190      0.00000     12.25000      1.03500     12.18950    124.27620    155.28250      2.40030     19.09960     11.16080     15.82890     17.72980      2.55640      0.01660    157.15360     74.70110
   1162.00000   1995.44680    164.26890     60.52560      0.00000     12.25000      1.04660     12.17800    125.61020    159.08620      2.38780     19.38190     11.00140     16.03420     17.87770      2.58360      0.01610    164.12960     74.82210
   1162.10000   1995.34020    163.88360     60.39290      0.00000     12.25000      0.94730     12.16660    125.47430    161.94630      2.36970     19.18640     12.18650     16.87150     18.63440      2.64700      0.01250    179.99870     74.68070
   1162.20000   1990.07970    163.69100     60.32670      0.00000     12.25000      0.98390     12.17430    124.12620    160.94670      2.36960     18.56100     13.50110     17.30470     19.10670      2.66680      0.01250    185.14290     74.27220
   1162.30000   2014.06040    163.49850     60.26050      0.00000     12.25000      1.04570     12.19700    122.76730    159.90480      2.37200     17.69380     12.91950     17.73350     19.59550      2.68280      0.01270    183.75720     73.70670
   1162.40000   1994.26280    163.11350     60.12810      0.00000     12.25000      1.27710     12.16550    117.99830    152.55320      2.39320     15.90510     14.89160     18.37120     20.38420      2.69200      0.01320    170.35580     73.15090
   1162.50000   2006.50610    162.92100     60.06190      0.00000     12.25000      1.38370     12.16460    114.33980    145.96590      2.41020     15.19890     15.78140     18.51980     20.58010      2.67910      0.01400    164.27200     72.75480
   1162.60000   1990.64480    162.72830     59.99550      0.00000     12.25000      1.40680     12.16870    110.72000    137.53380      2.43050     14.30090     13.72000     18.32600     20.42070      2.64810      0.01420    159.04240     72.62180
   1162.70000   1991.13710    162.34220     59.86210      0.00000     12.25000      1.34140     12.18790    105.86970    123.54970      2.45410     13.90030     11.86890     17.46730     19.75170      2.58000      0.01570    147.63410     72.80480
   1162.80000   1985.68370    162.14870     59.79490      0.00000     12.25000      1.20720     12.18570    106.27950    122.42620      2.45380     14.17290     13.00440     17.05060     19.51780      2.57270      0.01630    141.11370     73.28140
   1162.90000   1985.44470    161.95490     59.72740      0.00000     12.25000      1.02000     12.20400    108.92510    125.18180      2.44840     14.73690     11.36800     16.76600     19.45180      2.60230      0.01860    137.60200     73.91060
