~Version
 VERS.        2.0                                          :CWLS Log ASCII Standard - Version 2.0
 WRAP.        NO                                           :One data record per depth sample.
~Well
#MNEM.UNIT      VALUE                    DESCRIPTION
#---------      ----------               -----------
 STRT.M       272.00000                                                                                      :START DEPTH
 STOP.M       1226.40000                                                                                     :STOP DEPTH
 STEP.M       0.10000                                                                                        :STEP
 NULL.        -999.25000                                                                                     :NULL VALUE
 COMP.                                                                                                       :Oil Company
 WELL.        INDARA-1                                                                                       :Non unique well name
  FLD.        N-INDR                                                                                         :Field name
  LOC.        83.629417, 26.008328                                                                           :Location
 PROV.                                                                                                       :Province
 SRVC.                                                                                                       :Service
 DATE.        2013-11-29                                                                                     :Date unloaded
  UWI.        N-INDR-1                                                                                       :Unique well id
~Curve
#MNEM.UNIT    VALUE                                        :DESCRIPTION
#----.----    ---------------                              :-------------------
 DEPT.M       00 001 00 00                                 :Depth Index
 TENS.LBS                                                  :
 BHVT.FT3                                                  :
 AHVT.FT3                                                  :
  MMK.00                                                   :
   BS.IN                                                   :
   SP.MV                                                   :
 CALI.IN                                                   :
 GRTC.API                                                  :
   GR.API                                                  :
 RHOB.G/CC                                                 :
 NPHI.PU                                                   :
 MSFL.OHMM                                                 :
  LLS.OHMM                                                 :
  LLD.OHMM                                                 :
   PE.00                                                   :
 DRHO.G/CC                                                 :
GR_DT.API                                                  :
  DTC.00                                                   :
~A       TENS         BHVT         AHVT          MMK           BS           SP         CALI         GRTC           GR         RHOB         NPHI         MSFL          LLS          LLD           PE         DRHO        GR_DT          DTC
# ...
    437.00000   1151.74320   2098.51390    792.96680      0.00000     12.25000     32.00350     13.45830     46.33760     69.31200      1.94320     55.56170      1.89480     10.37590     16.61820      2.24620      0.06340     74.01160    171.87860
    437.10000   1132.69630   2098.28120    792.86060      0.00000     12.25000     32.39420     13.30380     46.83680     68.77900      1.93890     50.53840      2.04970     10.47130     16.85120      2.22680      0.06340     74.32010    172.55440
    437.20000   1161.09970   2097.82890    792.66100      0.00000     12.25000     32.82430     13.18910     47.97920     68.95360      1.98360     41.41120      2.12000     10.73600     17.47750      2.31920      0.05770     75.56340    173.23020
    437.30000   1167.35130   2097.60620    792.56470      0.00000     12.25000     33.08570     13.09230     48.38000     69.23460      2.01140     43.55020      2.16680     10.80710     17.75740      2.41700      0.05340     75.08880    173.92640
    437.40000   1183.73740   2097.38330    792.46810      0.00000     12.25000     33.35190     12.98520     48.68290     69.55670      2.03170     44.44220      2.10040     10.79450     17.96390      2.50080      0.05050     75.02240    174.59300
    437.50000   1187.08910   2097.15870    792.36980      0.00000     12.25000     33.60460     12.97740     49.14390     69.10820      2.04380     46.99790      1.95100     10.76280     18.11740      2.55440      0.04960     76.54100    175.18000
    437.60000   1172.95080   2096.70000    792.16350      0.00000     12.25000     34.01560     13.10940     50.56920     67.59260      2.04540     45.75540      1.77380     10.57410     18.29390      2.51400      0.04900     77.68940    175.59660
    437.70000   1155.31450   2096.46510    792.05500      0.00000     12.25000     34.12490     13.23670     51.69230     66.29010      2.03450     46.36760      1.78000     10.51550     18.38240      2.45100      0.04510     78.89950    175.89280
    437.80000   1144.24150   2096.22660    791.94270      0.00000     12.25000     34.22110     13.42900     52.31400     65.81580      2.01730     44.18610      1.76720     10.48940     18.69680      2.37860      0.03960     78.82830    176.11850
    437.90000   1152.25500   2095.73800    791.70670      0.00000     12.25000     34.28700     13.74660     52.96340     67.47780      1.97420     43.14160      1.68270     10.76890     19.58330      2.31630      0.03240     79.29340    176.34410
    438.00000   1133.74060   2095.48900    791.58400      0.00000     12.25000     34.33870     13.77830     52.99420     69.16790      1.96260     45.60560      1.72620     11.06980     20.25670      2.33700      0.03330     80.42760    176.56980
    438.10000   1135.52270   2095.23750    791.45890      0.00000     12.25000     34.39990     13.79850     52.81320     69.88470      1.95830     45.81470      1.66630     11.44100     21.10760      2.39350      0.03530     82.56780    176.79550
    438.20000   1145.69100   2094.73070    791.20470      0.00000     12.25000     34.43290     14.18720     52.71690     71.21290      1.97390     45.35710      1.56450     12.17650     22.80360      2.49380      0.03760     84.03420    177.02120
    438.30000   1144.90650   2094.47630    791.07670      0.00000     12.25000     34.41750     14.38320     52.95260     72.34080      1.98330     45.71500      1.59160     12.47220     23.50970      2.50590      0.03810     83.21800    177.24690
    438.40000   1147.49330   2094.22190    790.94850      0.00000     12.25000     34.35570     14.36250     53.37400     74.26280      1.99160     48.03190      1.52860     12.68380     24.02940      2.48910      0.04010     81.34350    177.47260
    438.50000   1142.80490   2093.71480    790.69400      0.00000     12.25000     34.21450     14.64440     54.46300     76.51860      2.00510     45.44690      1.52620     12.83630     24.36910      2.44250      0.04870     79.37880    177.80120
    438.60000   1143.72250   2093.46310    790.56870      0.00000     12.25000     34.16860     14.24020     54.49960     76.12740      2.01120     45.74330      1.67450     12.82660     24.32190      2.44160      0.05150     78.91850    178.24000
    438.70000   1147.97900   2093.21360    790.44560      0.00000     12.25000     34.15730     13.90460     54.37900     75.24900      2.01900     45.44550      1.73850     12.77040     24.16130      2.44610      0.05160     77.86500    178.83670
    438.80000   1153.37920   2092.72050    790.20510      0.00000     12.25000     34.07910     13.88460     54.40890     71.75280      2.02710     45.47890      1.84770     12.53930     23.48610      2.45910      0.04500     75.75800    179.44790
    438.90000   1151.25740   2092.47610    790.08700      0.00000     12.25000     34.00930     13.82450     54.21960     70.37540      2.02590     46.58210      1.84490     12.35080     22.97210      2.44790      0.04250     75.88130    179.92610
    439.00000   1155.53330   2092.23170    789.96910      0.00000     12.25000     33.89000     13.69100     53.95530     69.69730      2.02090     49.99100      1.79010     12.14270     22.52730      2.44360      0.04270     77.54700    180.04210
    439.10000   1138.90760   2091.98680    789.85060      0.00000     12.25000     33.75970     13.61380     53.71370     69.40570      2.01470     48.69620      1.69560     11.90320     21.95490      2.44350      0.04560     79.06560    179.63990
    439.20000   1146.07030   2091.49410    789.61050      0.00000     12.25000     33.56310     13.73780     53.20240     70.90840      2.00680     47.54250      1.56320     11.49760     21.01150      2.47460      0.05500     77.42370    178.86010
    439.30000   1147.25430   2091.24510    789.48790      0.00000     12.25000     33.48980     13.71930     53.15580     70.63660      1.99650     49.45640      1.50180     11.32320     20.59190      2.49740      0.05750     75.37830    177.88410
    439.40000   1145.79760   2090.99580    789.36510      0.00000     12.25000     33.50270     13.73200     52.96120     70.39070      1.98100     48.72840      1.45670     11.21420     20.31020      2.51640      0.05980     74.60480    176.90810
    439.50000   1154.92870   2090.51100    789.13290      0.00000     12.25000     33.65890     13.96830     53.95230     70.91890      1.94480     46.46000      1.45930     11.29710     20.25280      2.53740      0.06440     74.32960    175.93210
    439.60000   1143.53610   2090.28050    789.02880      0.00000     12.25000     33.77070     13.90020     54.84610     72.26820      1.94460     47.85040      1.51010     11.47690     20.49740      2.54650      0.06500     74.83730    174.95610
    439.70000   1143.15110   2090.06030    788.93500      0.00000     12.25000     33.89620     13.70300     55.23740     74.88010      1.96110     48.09190      1.57410     11.61740     20.68280      2.57040      0.05980     75.48270    173.98010
    439.80000   1151.36390   2089.64500    788.77230      0.00000     12.25000     34.03980     12.97070     54.73020     77.59380      2.01880     41.47150      1.60150     11.95060     21.28080      2.61930      0.03460     78.33010    173.22090
    439.90000   1151.48340   2089.44360    788.69720      0.00000     12.25000     34.04740     12.65210     54.66230     77.17690      2.04060     40.93850      1.61930     12.10390     21.62180      2.62620      0.02210     79.18900    172.85030
    440.00000   1146.03720   2089.24410    788.62400      0.00000     12.25000     34.05030     12.38590     54.16930     76.12860      2.05060     41.30170      1.62990     12.26310     21.97660      2.59560      0.01390     80.17130    173.04010
    440.10000   1141.86710   2088.84670    788.47920      0.00000     12.25000     33.72070     12.44870     52.73550     74.34600      2.04880     40.15320      1.68120     12.47450     22.49800      2.48420      0.00730     82.62000    173.52890
    440.20000   1148.33170   2088.64820    788.40700      0.00000     12.25000     33.46270     12.43480     52.07790     73.79550      2.04520     40.84310      1.72670     12.55430     22.69840      2.42370      0.00580     83.85860    174.14470
