~Version
 VERS.        2.0                                          :CWLS Log ASCII Standard - Version 2.0
 WRAP.        NO                                           :One data record per depth sample.
~Well
#MNEM.UNIT      VALUE                    DESCRIPTION
#---------      ----------               -----------
 STRT.M       272.00000                                                                                      :START DEPTH
 STOP.M       1226.40000                                                                                     :STOP DEPTH
 STEP.M       0.10000                                                                                        :STEP
 NULL.        -999.25000                                                                                     :NULL VALUE
 COMP.                                                                                                       :Oil Company
 WELL.        INDARA-1                                                                                       :Non unique well name
  FLD.        N-INDR                                                                                         :Field name
  LOC.        83.629417, 26.008328                                                                           :Location
 PROV.                                                                                                       :Province
 SRVC.                                                                                                       :Service
 DATE.        2013-11-29                                                                                     :Date unloaded
  UWI.        N-INDR-1                                                                                       :Unique well id
~Curve
#MNEM.UNIT    VALUE                                        :DESCRIPTION
#----.----    ---------------                              :-------------------
 DEPT.M       00 001 00 00                                 :Depth Index
 TENS.LBS                                                  :
 BHVT.FT3                                                  :
 AHVT.FT3                                                  :
  MMK.00                                                   :
   BS.IN                                                   :
   SP.MV                                                   :
 CALI.IN                                                   :
 GRTC.API                                                  :
   GR.API                                                  :
 RHOB.G/CC                                                 :
 NPHI.PU                                                   :
 MSFL.OHMM                                                 :
  LLS.OHMM                                                 :
  LLD.OHMM                                                 :
   PE.00                                                   :
 DRHO.G/CC                                                 :
GR_DT.API                                                  :
  DTC.00                                                   :
~A       TENS         BHVT         AHVT          MMK           BS           SP         CALI         GRTC           GR         RHOB         NPHI         MSFL          LLS          LLD           PE         DRHO        GR_DT          DTC
# ...
    737.30000   1523.39500   1295.43520    487.71400      0.00000     12.25000      0.59070     12.17020     56.17360     86.55390      2.31970     30.88230      3.77760      7.39030      9.74230      3.34040      0.03580     95.01540    104.95340
    737.40000   1519.09890   1295.24270    487.64780      0.00000     12.25000      0.80770     12.17320     56.49580     88.93760      2.30740     30.37720      3.66920      7.42640      9.80840      3.30680      0.03170     96.46750    104.83760
    737.50000   1509.77550   1295.05030    487.58170      0.00000     12.25000      0.96100     12.04550     57.19740     90.56700      2.29390     29.73410      3.78150      7.37350      9.74490      3.27310      0.02870     98.90680    105.59390
    737.60000   1516.04650   1294.66610    487.45030      0.00000     12.25000      1.20980     11.96330     59.80310     93.50400      2.28050     30.60560      3.88720      7.21580      9.53470      3.25750      0.02520    101.35550    107.25930
    737.70000   1514.07800   1294.47500    487.38540      0.00000     12.25000      1.28860     11.96720     61.75740     95.54790      2.27670     31.50550      3.85010      7.11950      9.41130      3.28550      0.02390    102.40900    110.38840
    737.80000   1506.04440   1294.28490    487.32170      0.00000     12.25000      1.37230     11.96720     63.98810     98.69620      2.27410     30.64150      3.80410      7.01210      9.27950      3.29440      0.02250    103.90860    114.22470
    737.90000   1506.66920   1293.90920    487.19850      0.00000     12.25000      1.49970     12.08020     69.40710    105.77870      2.26760     32.61890      3.46730      6.80290      9.01460      3.20270      0.02100    110.80860    118.22960
    738.00000   1511.27190   1293.72350    487.13920      0.00000     12.25000      1.55660     12.06180     72.48310    108.06260      2.26440     34.49100      3.53880      6.72780      8.90210      3.12370      0.02160    115.63010    120.70160
    738.10000   1514.71000   1293.53890    487.08090      0.00000     12.25000      1.64660     12.00420     74.71510    108.43510      2.26220     36.00660      3.65270      6.66870      8.79520      3.07570      0.02300    118.17370    122.18980
    738.20000   1534.16210   1293.17270    486.96730      0.00000     12.25000      1.73520     12.11110     79.00280    107.23690      2.25360     36.13050      3.68000      6.55640      8.57770      3.10320      0.02470    113.13390    122.85480
    738.30000   1540.81880   1292.99100    486.91180      0.00000     12.25000      1.76010     12.09220     80.82240    106.97690      2.24690     35.38510      3.57990      6.49070      8.45690      3.14340      0.02330    108.51170    123.43410
    738.40000   1536.13050   1292.80930    486.85650      0.00000     12.25000      1.70840     12.04960     81.69150    107.79670      2.24090     34.92000      3.52800      6.39960      8.29500      3.15060      0.02130    106.03460    123.65920
    738.50000   1535.29930   1292.44240    486.74220      0.00000     12.25000      1.50650     11.96130     83.22060    111.67470      2.24000     34.01000      3.44740      6.22910      7.98390      3.08260      0.01590    107.98020    123.47960
    738.60000   1542.03590   1292.25550    486.68160      0.00000     12.25000      1.37440     11.96160     83.97950    113.30630      2.24410     33.37200      3.48960      6.14540      7.83800      3.02130      0.01430    112.18480    122.90860
    738.70000   1537.83920   1292.06600    486.61840      0.00000     12.25000      1.22960     11.95580     84.08870    114.24910      2.25000     32.27890      3.44290      6.07020      7.70140      2.96990      0.01310    118.67670    122.03020
    738.80000   1555.54240   1291.68090    486.48580      0.00000     12.25000      1.07060     12.35780     85.12980    115.66750      2.25760     31.58850      3.66050      5.97660      7.50710      2.90870      0.01340    126.80110    121.04270
    738.90000   1543.17960   1291.48690    486.41820      0.00000     12.25000      0.99160     12.50540     86.31950    117.15970      2.26010     31.31590      3.62400      5.95060      7.43690      2.90800      0.01420    126.85800    120.19760
    739.00000   1542.14250   1291.29240    486.34990      0.00000     12.25000      0.94230     12.46620     87.34040    119.34220      2.26200     31.53240      3.69050      5.93580      7.38670      2.91560      0.01530    124.57070    119.68370
    739.10000   1539.87460   1291.09690    486.28070      0.00000     12.25000      0.92140     12.31730     88.18830    120.93690      2.26340     32.55000      3.77200      5.92860      7.35470      2.92210      0.01620    124.42830    119.56590
    739.20000   1524.83800   1290.70090    486.13740      0.00000     12.25000      0.95690     12.48800     91.02120    122.71860      2.26440     33.50300      3.49540      5.92450      7.30860      2.94350      0.01770    125.96590    119.80270
    739.30000   1507.77330   1290.49890    486.06160      0.00000     12.25000      1.06870     12.57440     93.18220    121.68840      2.26180     33.41500      3.42570      5.93240      7.30870      2.94480      0.01780    128.79420    120.29470
    739.40000   1531.70130   1290.29390    485.98300      0.00000     12.25000      1.18570     12.65250     95.16300    120.46840      2.25970     33.86870      3.32120      5.95040      7.33570      2.94260      0.01810    131.24290    120.91920
    739.50000   1527.85080   1289.87880    485.82040      0.00000     12.25000      1.44900     12.98870     97.81680    122.39140      2.25290     34.95890      3.21740      6.04110      7.47330      2.92290      0.01870    133.17910    121.54890
    739.60000   1549.31100   1289.67130    485.73930      0.00000     12.25000      1.60220     13.11710     98.31990    125.41930      2.25000     33.75800      3.27150      6.12690      7.60600      2.93760      0.01930    131.66060    122.05590
    739.70000   1533.03140   1289.46570    485.66010      0.00000     12.25000      1.79760     13.17130     98.09370    127.09530      2.24770     34.48730      3.24690      6.25490      7.79690      2.96590      0.01970    131.37580    122.31220
    739.80000   1532.73850   1289.06320    485.51030      0.00000     12.25000      2.33190     12.56060     96.81420    125.59610      2.24830     37.57720      3.26850      6.60130      8.29150      3.07020      0.02100    128.07290    122.17070
    739.90000   1521.90520   1288.86570    485.43910      0.00000     12.25000      2.57730     12.46040     96.26830    123.27660      2.25190     35.61430      3.40650      6.79250      8.57350      3.08860      0.02210    131.51820    121.52190
    740.00000   1526.32790   1288.66910    485.36870      0.00000     12.25000      2.81150     12.34890     95.25560    121.64950      2.25430     34.95550      3.49810      6.98130      8.86600      3.09640      0.02300    135.39050    120.36790
    740.10000   1549.43760   1288.27400    485.22640      0.00000     12.25000      3.17230     12.35140     93.03000    116.81180      2.25800     35.98160      3.58580      7.33890      9.48330      3.02810      0.02540    140.77200    118.79160
    740.20000   1522.93580   1288.07450    485.15320      0.00000     12.25000      3.38730     12.64580     92.05250    113.99890      2.25790     36.28350      3.52560      7.53830      9.82210      2.98900      0.02630    136.41560    116.70680
    740.30000   1521.18040   1287.87370    485.07870      0.00000     12.25000      3.62410     12.69230     90.24060    111.95180      2.25870     35.36850      3.33760      7.88200     10.37330      2.93250      0.02680    130.74940    113.99070
    740.40000   1529.93870   1287.47190    484.92960      0.00000     12.25000      4.05840     12.26860     83.76330    110.04900      2.25720     34.74360      3.60090      8.93650     11.94560      2.84310      0.02790    122.69150    110.38510
    740.50000   1523.00920   1287.27080    484.85470      0.00000     12.25000      4.23590     12.17710     80.73210    109.40250      2.26470     34.05860      5.14880      9.72990     13.06040      2.84580      0.03050    121.71390    106.49050
