~Version
 VERS.        2.0                                          :CWLS Log ASCII Standard - Version 2.0
 WRAP.        NO                                           :One data record per depth sample.
~Well
#MNEM.UNIT      VALUE                    DESCRIPTION
#---------      ----------               -----------
 STRT.M       272.00000                                                                                      :START DEPTH
 STOP.M       1226.40000                                                                                     :STOP DEPTH
 STEP.M       0.10000                                                                                        :STEP
 NULL.        -999.25000                                                                                     :NULL VALUE
 COMP.                                                                                                       :Oil Company
 WELL.        INDARA-1                                                                                       :Non unique well name
  FLD.        N-INDR                                                                                         :Field name
  LOC.        83.629417, 26.008328                                                                           :Location
 PROV.                                                                                                       :Province
 SRVC.                                                                                                       :Service
 DATE.        2013-11-29                                                                                     :Date unloaded
  UWI.        N-INDR-1                                                                                       :Unique well id
~Curve
#MNEM.UNIT    VALUE                                        :DESCRIPTION
#----.----    ---------------                              :-------------------
 DEPT.M       00 001 00 00                                 :Depth Index
 TENS.LBS                                                  :
 BHVT.FT3                                                  :
 AHVT.FT3                                                  :
  MMK.00                                                   :
   BS.IN                                                   :
   SP.MV                                                   :
 CALI.IN                                                   :
 GRTC.API                                                  :
   GR.API                                                  :
 RHOB.G/CC                                                 :
 NPHI.PU                                                   :
 MSFL.OHMM                                                 :
  LLS.OHMM                                                 :
  LLD.OHMM                                                 :
   PE.00                                                   :
 DRHO.G/CC                                                 :
GR_DT.API                                                  :
  DTC.00                                                   :
~A       TENS         BHVT         AHVT          MMK           BS           SP         CALI         GRTC           GR         RHOB         NPHI         MSFL          LLS          LLD           PE         DRHO        GR_DT          DTC
# ...
    318.20000   -999.25000   2415.96090    913.98270   -999.25000   -999.25000     -3.63960   -999.25000   -999.25000   -999.25000   -999.25000   -999.25000     19.88210     25.99640     19.95570   -999.25000   -999.25000     42.96150     58.95440
    318.30000   -999.25000   2415.74580    913.89380   -999.25000   -999.25000     -3.09400   -999.25000   -999.25000   -999.25000   -999.25000   -999.25000     19.88160     25.99650     19.95400   -999.25000   -999.25000     43.68660     57.95330
    318.40000   -999.25000   2415.53080    913.80510   -999.25000   -999.25000     -2.54180   -999.25000   -999.25000   -999.25000   -999.25000   -999.25000     19.88180     25.99600     19.95680   -999.25000   -999.25000     47.26380     57.08080
    318.50000   -999.25000   2415.10110    913.62810   -999.25000   -999.25000     -1.92950   -999.25000   -999.25000   -999.25000   -999.25000   -999.25000     19.88250     25.99570     19.95390   -999.25000   -999.25000     49.14020     56.83650
    318.60000   -999.25000   2414.88620    913.53960   -999.25000   -999.25000     -1.97250   -999.25000   -999.25000   -999.25000   -999.25000   -999.25000     19.88270     25.99640     19.95390   -999.25000   -999.25000     51.10480     57.31610
    318.70000   -999.25000   2414.67140    913.45090   -999.25000   -999.25000     -2.11540   -999.25000   -999.25000   -999.25000   -999.25000   -999.25000     19.88260     25.99640     19.95240   -999.25000   -999.25000     54.06610     58.17620
    318.80000   -999.25000   2414.24120    913.27340   -999.25000   -999.25000     -2.59550   -999.25000   -999.25000   -999.25000   -999.25000   -999.25000     19.88320     25.99590     19.95490   -999.25000   -999.25000     63.85610     58.83060
    318.90000   -999.25000   2414.02590    913.18440   -999.25000   -999.25000     -2.66170   -999.25000   -999.25000   -999.25000   -999.25000   -999.25000     19.88320     25.99650     19.95150   -999.25000   -999.25000     68.61120     58.97840
    319.00000   -999.25000   2413.81050    913.09530   -999.25000   -999.25000     -2.60980   -999.25000   -999.25000   -999.25000   -999.25000   -999.25000     19.88250     25.99640     19.95250   -999.25000   -999.25000     71.15000     58.67620
    319.10000   -999.25000   2413.37990    912.91730   -999.25000   -999.25000     -2.24270   -999.25000   -999.25000   -999.25000   -999.25000   -999.25000     19.88130     25.99560     19.95480   -999.25000   -999.25000     71.36830     58.20980
    319.20000   -999.25000   2413.16460    912.82840   -999.25000   -999.25000     -1.91550   -999.25000   -999.25000   -999.25000   -999.25000   -999.25000     19.88130     25.99540     19.95480   -999.25000   -999.25000     68.32640     57.81730
    319.30000   -999.25000   2412.94950    912.73960   -999.25000   -999.25000     -1.57070   -999.25000   -999.25000   -999.25000   -999.25000   -999.25000     19.88160     25.99530     19.95550   -999.25000   -999.25000     65.18960     57.56320
    319.40000   -999.25000   2412.51930    912.56220   -999.25000   -999.25000     -0.81570   -999.25000   -999.25000   -999.25000   -999.25000   -999.25000     19.88250     25.99440     19.95950   -999.25000   -999.25000     62.81680     57.35320
    319.50000   -999.25000   2412.30440    912.47360   -999.25000   -999.25000     -0.50370   -999.25000   -999.25000   -999.25000   -999.25000   -999.25000     19.88250     25.99550     19.95600   -999.25000   -999.25000     64.77960     57.06170
    319.60000   -999.25000   2412.08960    912.38490   -999.25000   -999.25000     -0.17320   -999.25000   -999.25000   -999.25000   -999.25000   -999.25000     19.88190     25.99740     19.95370   -999.25000   -999.25000     68.06160     56.67200
    319.70000   -999.25000   2411.65920    912.20730   -999.25000   -999.25000      0.45760   -999.25000   -999.25000   -999.25000   -999.25000   -999.25000     19.88200     25.99640     19.95140   -999.25000   -999.25000     72.03750     56.30730
    319.80000   -999.25000   2411.44360    912.11820   -999.25000   -999.25000      0.68960   -999.25000   -999.25000   -999.25000   -999.25000   -999.25000     19.88200     25.99630     19.95540   -999.25000   -999.25000     72.75590     56.14420
    319.90000   -999.25000   2411.22800    912.02880   -999.25000   -999.25000      0.90360   -999.25000   -999.25000   -999.25000   -999.25000   -999.25000     19.88160     25.99770     19.95120   -999.25000   -999.25000     73.19920     56.28190
    320.00000   -999.25000   2411.01220    911.93930   -999.25000   -999.25000      1.07410   -999.25000   -999.25000   -999.25000   -999.25000   -999.25000     19.88190     25.99750     19.95200   -999.25000   -999.25000     71.09780     56.72040
    320.10000   1047.70570   2410.58030    911.76010      0.00000     12.25000      1.40100     12.46350     32.92100     58.46510      1.61230     62.71420     19.88200     25.99650     19.95290      9.87660     -1.24720     70.29580     57.36510
    320.20000   1048.15760   2410.36470    911.67090      0.00000     12.25000      1.67120     12.48550     32.66010     58.88320      1.61700     64.40150     19.88140     25.99640     19.95130      9.66250     -1.24480     70.99720     58.01170
    320.30000   1047.31340   2410.14940    911.58200      0.00000     12.25000      1.93140     12.48690     32.88860     57.86650      1.62000     59.97120     19.88240     25.99720     19.95300      9.67600     -1.24290     73.11560     58.35760
    320.40000   1046.05660   2409.71950    911.40460      0.00000     12.25000      2.35420     12.49880     32.58890     52.98830      1.62840     56.78440     19.88180     25.99580     19.95020     10.20150     -1.24030     73.96130     58.17600
    320.50000   1048.17770   2409.50440    911.31590      0.00000     12.25000      2.48920     12.49290     31.81740     49.74160      1.62590     61.51180     19.88180     25.99630     19.94810     10.63650     -1.24070     71.21360     57.49890
    320.60000   1046.84120   2409.28910    911.22700      0.00000     12.25000      2.60640     12.43470     31.54490     47.50340      1.62330     59.47190     19.88260     25.99600     19.94990     10.99100     -1.24150     68.05500     56.62270
    320.70000   1043.26990   2408.85820    911.04880      0.00000     12.25000      3.04660     12.46700     31.52000     47.61000      1.61210     63.96860     19.88200     25.99580     19.94890     11.38370     -1.24610     66.03240     55.81300
    320.80000   1045.34480   2408.64260    910.95950      0.00000     12.25000      3.31890     12.48800     32.05280     49.42190      1.61430     66.39470     19.88160     25.99510     19.94690     11.27030     -1.24940     65.72020     55.13730
    320.90000   1047.57960   2408.42700    910.87040      0.00000     12.25000      3.62330     12.47350     32.87190     50.73370      1.62190     64.72380     19.88250     25.99510     19.94820     11.13350     -1.25350     65.39840     54.50280
    321.00000   1048.78960   2407.99630    910.69230      0.00000     12.25000      4.21090     12.47240     33.28170     52.69320      1.64660     54.13450     19.88380     25.99420     19.95030     10.78320     -1.26030     61.79180     53.88480
    321.10000   1050.92430   2407.78100    910.60330      0.00000     12.25000      4.51240     12.42780     32.98900     53.14410      1.65650     56.67500     19.88450     25.99460     19.94840     10.74940     -1.25930     61.47290     53.39550
    321.20000   1050.38590   2407.56590    910.51440      0.00000     12.25000      4.84290     12.46860     33.24130     53.47200      1.65700     55.95980     19.88470     25.99430     19.94900     10.81760     -1.25670     61.29640     53.18750
    321.30000   1049.45460   2407.13530    910.33650      0.00000     12.25000      5.47440     12.40530     33.44010     53.27530      1.64830     64.09080     19.88460     25.99380     19.95320     11.59850     -1.24350     61.91990     53.29440
    321.40000   1042.59840   2406.91990    910.24740      0.00000     12.25000      5.80680     12.42400     33.18640     54.01310      1.64290     66.55900     19.88420     25.99390     19.95200     12.11870     -1.23670     60.48770     53.61200
