~Version
 VERS.        2.0                                          :CWLS Log ASCII Standard - Version 2.0
 WRAP.        NO                                           :One data record per depth sample.
~Well
#MNEM.UNIT      VALUE                    DESCRIPTION
#---------      ----------               -----------
 STRT.M       272.00000                                                                                      :START DEPTH
 STOP.M       1226.40000                                                                                     :STOP DEPTH
 STEP.M       0.10000                                                                                        :STEP
 NULL.        -999.25000                                                                                     :NULL VALUE
 COMP.                                                                                                       :Oil Company
 WELL.        INDARA-1                                                                                       :Non unique well name
  FLD.        N-INDR                                                                                         :Field name
  LOC.        83.629417, 26.008328                                                                           :Location
 PROV.                                                                                                       :Province
 SRVC.                                                                                                       :Service
 DATE.        2013-11-29                                                                                     :Date unloaded
  UWI.        N-INDR-1                                                                                       :Unique well id
~Curve
#MNEM.UNIT    VALUE                                        :DESCRIPTION
#----.----    ---------------                              :-------------------
 DEPT.M       00 001 00 00                                 :Depth Index
 TENS.LBS                                                  :
 BHVT.FT3                                                  :
 AHVT.FT3                                                  :
  MMK.00                                                   :
   BS.IN                                                   :
   SP.MV                                                   :
 CALI.IN                                                   :
 GRTC.API                                                  :
   GR.API                                                  :
 RHOB.G/CC                                                 :
 NPHI.PU                                                   :
 MSFL.OHMM                                                 :
  LLS.OHMM                                                 :
  LLD.OHMM                                                 :
   PE.00                                                   :
 DRHO.G/CC                                                 :
GR_DT.API                                                  :
  DTC.00                                                   :
~A       TENS         BHVT         AHVT          MMK           BS           SP         CALI         GRTC           GR         RHOB         NPHI         MSFL          LLS          LLD           PE         DRHO        GR_DT          DTC
# ...
    918.80000   1726.22270    813.95250    307.12320      0.00000     12.25000    -11.86990     12.04260     82.61610    126.16190      2.17220     45.65230      2.81340      4.85720      6.25740      2.91940      0.02040    145.97310    117.05600
    918.90000   1706.16520    813.75790    307.05500      0.00000     12.25000    -11.41330     12.03950     80.80710    123.74790      2.18970     45.48130      3.18350      5.25140      6.76670      2.96510      0.02160    145.38470    114.41850
    919.00000   1710.86720    813.56250    306.98590      0.00000     12.25000    -10.94060     12.08070     77.94150    119.88980      2.21290     42.97610      3.72090      5.65240      7.30170      2.97580      0.02280    140.51570    112.72380
    919.10000   1700.44620    813.17050    306.84650      0.00000     12.25000    -10.14280     12.12760     70.16000    110.11110      2.27300     37.55500      4.35180      6.27900      8.18870      2.97090      0.02400    129.71870    111.86180
    919.20000   1725.43090    812.97470    306.77700      0.00000     12.25000     -9.74730     12.05450     66.95320    104.13190      2.30320     34.83370      4.50240      6.41030      8.37570      2.94470      0.02490    125.57410    110.91930
    919.30000   1714.60470    812.77950    306.70810      0.00000     12.25000     -9.35480     12.06250     64.10550     98.51700      2.32420     33.81080      4.32140      6.38130      8.32790      2.93620      0.02410    121.23990    110.03900
    919.40000   1716.28670    812.39080    306.57210      0.00000     12.25000     -8.28640     12.09750     59.92140     90.48220      2.31190     33.59510      3.54890      5.93470      7.67580      2.88940      0.01820    104.46080    109.56760
    919.50000   1724.71260    812.19660    306.50420      0.00000     12.25000     -7.63490     12.10000     58.70690     88.28610      2.28480     33.07970      3.26210      5.60380      7.23690      2.81830      0.01400     97.05170    109.92230
    919.60000   1732.32740    812.00230    306.43620      0.00000     12.25000     -6.89710     12.08370     57.76160     87.87970      2.25240     34.17190      2.83830      5.26060      6.80850      2.72260      0.00990     92.38050    111.36940
    919.70000   1716.51280    811.61360    306.30020      0.00000     12.25000     -5.30810     12.03960     55.73780     89.60380      2.19970     35.49730      2.29160      4.68760      6.11340      2.47680      0.00280     85.54330    115.07730
    919.80000   1718.20910    811.41940    306.23230      0.00000     12.25000     -4.56140     12.03640     54.92590     89.72680      2.18240     36.23370      2.17910      4.50470      5.89070      2.38800     -0.00010     83.84440    120.21590
    919.90000   1719.11320    811.22530    306.16450      0.00000     12.25000     -3.84450     12.06220     53.97480     88.87290      2.17120     36.23380      2.14970      4.37410      5.72470      2.31040     -0.00230     82.06950    126.10140
    920.00000   1720.09120    811.03150    306.09700      0.00000     12.25000     -3.20410     12.04770     53.47770     87.15120      2.16390     37.27580      2.20060      4.29900      5.61990      2.27780     -0.00410     84.94540    129.73080
    920.10000   1725.78360    810.64450    305.96270      0.00000     12.25000     -2.02000     11.99720     52.66330     86.43560      2.15280     37.04870      2.16840      4.21040      5.49320      2.24070     -0.00640     86.97640    131.65880
    920.20000   1743.93880    810.45120    305.89570      0.00000     12.25000     -1.43800     12.05930     51.68330     86.85250      2.14510     35.10550      2.12410      4.16340      5.43590      2.23760     -0.00800     89.95660    132.37540
    920.30000   1755.38390    810.25790    305.82870      0.00000     12.25000     -0.88130     12.10520     50.91130     87.14880      2.13600     34.51180      2.02760      4.11910      5.38440      2.21310     -0.00890     90.12250    133.40960
    920.40000   1750.07730    809.87040    305.69380      0.00000     12.25000      0.26430     12.11670     48.83190     87.10790      2.11360     35.05120      1.81680      4.09080      5.36990      2.20960     -0.01230     89.34630    134.45390
    920.50000   1718.85400    809.67630    305.62610      0.00000     12.25000      0.72960     12.10020     47.25250     85.95070      2.10600     35.84340      1.76420      4.11270      5.40780      2.21130     -0.01220     87.61260    135.09040
    920.60000   1752.88350    809.48210    305.55820      0.00000     12.25000      1.12010     12.09770     45.91800     84.02160      2.10120     36.07170      1.69520      4.20470      5.53170      2.22400     -0.01140     86.31800    135.13100
    920.70000   1725.80370    809.09360    305.42230      0.00000     12.25000      1.65020     12.05640     43.80520     80.11550      2.09910     35.92360      1.76220      4.44430      5.83390      2.19540     -0.00500     81.92790    134.11540
    920.80000   1722.96370    808.89920    305.35420      0.00000     12.25000      1.78740     12.05520     43.03200     79.15630      2.10020     34.57800      1.86600      4.80980      6.31340      2.18680     -0.00240     77.55540    131.88300
    920.90000   1711.41920    808.70450    305.28580      0.00000     12.25000      1.93360     12.05440     42.67690     78.04240      2.10870     34.12250      2.17510      5.15010      6.77400      2.19450      0.00030     73.55840    127.09560
    921.00000   1778.56070    808.31400    305.14790      0.00000     12.25000      2.19560     12.10540     41.74360     73.50150      2.15400     31.80970      2.96280      5.82380      7.70880      2.35820      0.00520     66.67230    120.81480
    921.10000   1702.81990    808.11850    305.07870      0.00000     12.25000      2.30980     12.10330     41.37860     71.55960      2.18560     31.05110      3.08780      6.10050      8.12410      2.51230      0.00740     67.04880    113.95450
    921.20000   1731.42270    807.92290    305.00940      0.00000     12.25000      2.35930     12.14280     41.07370     71.29370      2.21190     29.73100      3.23480      6.28240      8.41740      2.69410      0.00830     68.77250    110.03770
    921.30000   1715.83470    807.53160    304.87070      0.00000     12.25000      2.23280     12.28820     41.69450     72.43680      2.23620     28.60830      3.40310      6.32710      8.50800      2.99060      0.00650     72.48350    109.07380
    921.40000   1747.41000    807.33620    304.80160      0.00000     12.25000      2.06950     12.32510     42.46600     73.22270      2.23750     28.78880      2.90360      6.22780      8.36660      3.05870      0.00510     72.46460    110.73330
    921.50000   1736.53060    807.14060    304.73230      0.00000     12.25000      1.85420     12.31600     43.80530     73.50850      2.23580     28.37170      2.81020      6.01890      8.08110      3.06920      0.00350     72.65440    113.01110
    921.60000   1735.47330    806.94480    304.66290      0.00000     12.25000      1.66370     12.25520     44.95700     74.18320      2.22950     28.75920      2.62740      5.74730      7.71000      3.02970      0.00210     73.10990    115.50480
    921.70000   1711.58540    806.55410    304.52470      0.00000     12.25000      1.32000     12.24960     47.03080     77.32560      2.19090     30.53660      2.03020      5.22660      7.01670      2.81970     -0.00230     71.97100    118.15700
    921.80000   1716.12050    806.35860    304.45560      0.00000     12.25000      1.22260     12.23040     47.50350     79.12700      2.16060     32.19460      2.13310      4.97490      6.69040      2.67430     -0.00440     73.74580    120.87430
    921.90000   1687.47090    806.16310    304.38650      0.00000     12.25000      1.19130     12.21100     47.92580     81.38870      2.13140     32.84480      2.09190      4.78350      6.44540      2.53410     -0.00620     80.03320    123.31720
    922.00000   1728.55680    805.77260    304.24850      0.00000     12.25000      1.30300     12.18340     48.86730     84.64000      2.09380     33.39860      2.00730      4.47100      6.03100      2.38240     -0.00880     83.89590    125.13920
