~Version
 VERS.        2.0                                          :CWLS Log ASCII Standard - Version 2.0
 WRAP.        NO                                           :One data record per depth sample.
~Well
#MNEM.UNIT      VALUE                    DESCRIPTION
#---------      ----------               -----------
 STRT.M       272.00000                                                                                      :START DEPTH
 STOP.M       1226.40000                                                                                     :STOP DEPTH
 STEP.M       0.10000                                                                                        :STEP
 NULL.        -999.25000                                                                                     :NULL VALUE
 COMP.                                                                                                       :Oil Company
 WELL.        INDARA-1                                                                                       :Non unique well name
  FLD.        N-INDR                                                                                         :Field name
  LOC.        83.629417, 26.008328                                                                           :Location
 PROV.                                                                                                       :Province
 SRVC.                                                                                                       :Service
 DATE.        2013-11-29                                                                                     :Date unloaded
  UWI.        N-INDR-1                                                                                       :Unique well id
~Curve
#MNEM.UNIT    VALUE                                        :DESCRIPTION
#----.----    ---------------                              :-------------------
 DEPT.M       00 001 00 00                                 :Depth Index
 TENS.LBS                                                  :
 BHVT.FT3                                                  :
 AHVT.FT3                                                  :
  MMK.00                                                   :
   BS.IN                                                   :
   SP.MV                                                   :
 CALI.IN                                                   :
 GRTC.API                                                  :
   GR.API                                                  :
 RHOB.G/CC                                                 :
 NPHI.PU                                                   :
 MSFL.OHMM                                                 :
  LLS.OHMM                                                 :
  LLD.OHMM                                                 :
   PE.00                                                   :
 DRHO.G/CC                                                 :
GR_DT.API                                                  :
  DTC.00                                                   :
~A       TENS         BHVT         AHVT          MMK           BS           SP         CALI         GRTC           GR         RHOB         NPHI         MSFL          LLS          LLD           PE         DRHO        GR_DT          DTC
# ...
   1219.10000   2127.03640     13.52070      4.51670      0.00000     12.25000   -999.25000     12.48210   -999.25000   -999.25000      2.51720     17.01340     21.38690     14.70990     10.33680      2.99860      0.02460   -999.25000     76.31090
   1219.20000   2148.92900     13.31080      4.43310      0.00000     12.25000   -999.25000     12.48320   -999.25000   -999.25000      2.53080     16.54970     21.44500     12.84150      8.00350      3.00950      0.02760   -999.25000     76.04140
   1219.30000   2139.10620     13.10140      4.35010      0.00000     12.25000   -999.25000     12.53480   -999.25000   -999.25000      2.54380     15.68480     23.96180   -999.25000   -999.25000      3.06000      0.03070   -999.25000     75.85280
   1219.40000   2154.58840     12.68780      4.18910      0.00000     12.25000   -999.25000     12.45870   -999.25000   -999.25000      2.55870     15.33010     29.21490   -999.25000   -999.25000      3.09070      0.03920   -999.25000     75.72660
   1219.50000   2151.01710     12.48430      4.11200      0.00000     12.25000   -999.25000     12.43270   -999.25000   -999.25000      2.56190     14.90880     32.52210   -999.25000   -999.25000      3.01420      0.04190   -999.25000     75.64760
   1219.60000   2119.98020     12.28160      4.03560      0.00000     12.25000   -999.25000     12.38370   -999.25000   -999.25000      2.55830     14.71710     32.82210   -999.25000   -999.25000      2.89330      0.04170   -999.25000     75.61860
   1219.70000   2141.74630     11.87270      3.87930      0.00000     12.25000   -999.25000     12.45900   -999.25000   -999.25000      2.55700     13.81020     25.53590   -999.25000   -999.25000      2.71290      0.03620   -999.25000     75.64790
   1219.80000   2137.32420     11.66460      3.79750      0.00000     12.25000   -999.25000     12.52340   -999.25000   -999.25000      2.55780     13.57390     24.81620   -999.25000   -999.25000      2.71580      0.03370   -999.25000     75.72800
   1219.90000   2140.52270     11.45400      3.71330      0.00000     12.25000   -999.25000     12.57460   -999.25000   -999.25000      2.56580     13.92530     22.35490   -999.25000   -999.25000      2.77820      0.03250   -999.25000     75.83390
   1220.00000   2127.88720     11.24290      3.62850      0.00000     12.25000   -999.25000     12.64100   -999.25000   -999.25000      2.57320     14.61460     21.02010   -999.25000   -999.25000      2.89370      0.03100   -999.25000     75.93570
   1220.10000   2140.93510     10.82530      3.46350      0.00000     12.25000   -999.25000     12.63300   -999.25000   -999.25000      2.58630     15.87880     22.51110   -999.25000   -999.25000      3.22920      0.03010   -999.25000     76.01380
   1220.20000   2137.43070     10.62080      3.38530      0.00000     12.25000   -999.25000     12.60150   -999.25000   -999.25000      2.58740     16.25270     23.70970   -999.25000   -999.25000      3.39240      0.02830   -999.25000     76.06020
   1220.30000   2131.39870     10.41940      3.31020      0.00000     12.25000   -999.25000     12.53010   -999.25000   -999.25000      2.58670     16.52330     26.22680   -999.25000   -999.25000      3.47510      0.02740   -999.25000     76.07500
   1220.40000   2123.97020     10.02210      3.16560      0.00000     12.25000   -999.25000     12.27550   -999.25000   -999.25000      2.56740     15.89280     30.21090   -999.25000   -999.25000      3.24720      0.02240   -999.25000     76.06160
   1220.50000   2131.41870      9.82430      3.09410      0.00000     12.25000   -999.25000     12.29280   -999.25000   -999.25000      2.55500     15.00370     30.15600   -999.25000   -999.25000      2.97440      0.02250   -999.25000     76.02320
   1220.60000   2129.13720      9.62650      3.02260      0.00000     12.25000   -999.25000     12.25910   -999.25000   -999.25000      2.54240     13.93920     29.15470   -999.25000   -999.25000      2.69450      0.02340   -999.25000     75.96220
   1220.70000   2148.07100      9.23050      2.87920      0.00000     12.25000   -999.25000     12.34390   -999.25000   -999.25000      2.53090     13.73710     25.92040   -999.25000   -999.25000      2.38210      0.02790   -999.25000     75.89320
   1220.80000   2147.01390      9.03230      2.80740      0.00000     12.25000   -999.25000     12.34230   -999.25000   -999.25000      2.52990     13.79450     26.07950   -999.25000   -999.25000      2.37910      0.02860   -999.25000     75.83420
   1220.90000   2149.36820      8.83420      2.73560      0.00000     12.25000   -999.25000     12.35480   -999.25000   -999.25000      2.53320     14.05260     25.73620   -999.25000   -999.25000      2.43560      0.02880   -999.25000   -999.25000
   1221.00000   2143.32960      8.43770      2.59180      0.00000     12.25000   -999.25000     12.35380   -999.25000   -999.25000      2.54110     14.19770     27.81610   -999.25000   -999.25000      2.56080      0.02690   -999.25000   -999.25000
   1221.10000   2146.76050      8.23950      2.51990      0.00000     12.25000   -999.25000     12.35620   -999.25000   -999.25000      2.54270     14.11950     28.89970   -999.25000   -999.25000      2.59710      0.02550   -999.25000   -999.25000
   1221.20000   2130.61400      8.04160      2.44820      0.00000     12.25000   -999.25000     12.34680   -999.25000   -999.25000      2.54160     14.04540     29.03490   -999.25000   -999.25000      2.60770      0.02350   -999.25000   -999.25000
   1221.30000   2142.81050      7.64610      2.30540      0.00000     12.25000   -999.25000     12.37650   -999.25000   -999.25000      2.53300     13.67000     29.63900   -999.25000   -999.25000      2.56770      0.01980   -999.25000   -999.25000
   1221.40000   2129.87570      7.44840      2.23400      0.00000     12.25000   -999.25000     12.32940   -999.25000   -999.25000      2.52990     13.18870     28.36320   -999.25000   -999.25000      2.50210      0.01750   -999.25000   -999.25000
   1221.50000   2137.91580      7.25060      2.16250      0.00000     12.25000   -999.25000     12.32830   -999.25000   -999.25000      2.52640   -999.25000     27.90940   -999.25000   -999.25000      2.42440      0.01620   -999.25000   -999.25000
   1221.60000   2128.87160      7.05260      2.09090      0.00000     12.25000   -999.25000     12.35280   -999.25000   -999.25000      2.52560   -999.25000     27.67330   -999.25000   -999.25000      2.34720      0.01500   -999.25000   -999.25000
   1221.70000   2152.22750      6.65790      1.94880      0.00000     12.25000   -999.25000     12.41760   -999.25000   -999.25000      2.51840   -999.25000     26.36090   -999.25000   -999.25000      2.29530      0.01520   -999.25000   -999.25000
   1221.80000   2136.19360      6.46160      1.87880      0.00000     12.25000   -999.25000     12.43490   -999.25000   -999.25000      2.51070   -999.25000     25.70100   -999.25000   -999.25000      2.30680      0.01760   -999.25000   -999.25000
   1221.90000   2166.08030      6.26660      1.81010      0.00000     12.25000   -999.25000     12.21560   -999.25000   -999.25000      2.50300   -999.25000     24.70720   -999.25000   -999.25000      2.30910      0.02290   -999.25000   -999.25000
   1222.00000   2148.80880      5.88160      1.67780      0.00000     12.25000   -999.25000     12.15440   -999.25000   -999.25000      2.49200   -999.25000     27.06280   -999.25000   -999.25000      2.24640      0.03000   -999.25000   -999.25000
   1222.10000   2151.13650      5.69100      1.61350      0.00000     12.25000   -999.25000     12.19390   -999.25000   -999.25000      2.49490   -999.25000     27.50680   -999.25000   -999.25000      2.19230      0.03020   -999.25000   -999.25000
   1222.20000   2142.29170      5.50170      1.55050      0.00000     12.25000   -999.25000     12.23660   -999.25000   -999.25000      2.49470   -999.25000     27.93930   -999.25000   -999.25000      2.17480      0.02660   -999.25000   -999.25000
   1222.30000   2140.82200      5.12660      1.42810      0.00000     12.25000   -999.25000     12.21480   -999.25000   -999.25000      2.49550   -999.25000     24.65920   -999.25000   -999.25000      2.20160      0.02410   -999.25000   -999.25000
