~Version
 VERS.        2.0                                          :CWLS Log ASCII Standard - Version 2.0
 WRAP.        NO                                           :One data record per depth sample.
~Well
#MNEM.UNIT      VALUE                    DESCRIPTION
#---------      ----------               -----------
 STRT.M       272.00000                                                                                      :START DEPTH
 STOP.M       1226.40000                                                                                     :STOP DEPTH
 STEP.M       0.10000                                                                                        :STEP
 NULL.        -999.25000                                                                                     :NULL VALUE
 COMP.                                                                                                       :Oil Company
 WELL.        INDARA-1                                                                                       :Non unique well name
  FLD.        N-INDR                                                                                         :Field name
  LOC.        83.629417, 26.008328                                                                           :Location
 PROV.                                                                                                       :Province
 SRVC.                                                                                                       :Service
 DATE.        2013-11-29                                                                                     :Date unloaded
  UWI.        N-INDR-1                                                                                       :Unique well id
~Curve
#MNEM.UNIT    VALUE                                        :DESCRIPTION
#----.----    ---------------                              :-------------------
 DEPT.M       00 001 00 00                                 :Depth Index
 TENS.LBS                                                  :
 BHVT.FT3                                                  :
 AHVT.FT3                                                  :
  MMK.00                                                   :
   BS.IN                                                   :
   SP.MV                                                   :
 CALI.IN                                                   :
 GRTC.API                                                  :
   GR.API                                                  :
 RHOB.G/CC                                                 :
 NPHI.PU                                                   :
 MSFL.OHMM                                                 :
  LLS.OHMM                                                 :
  LLD.OHMM                                                 :
   PE.00                                                   :
 DRHO.G/CC                                                 :
GR_DT.API                                                  :
  DTC.00                                                   :
~A       TENS         BHVT         AHVT          MMK           BS           SP         CALI         GRTC           GR         RHOB         NPHI         MSFL          LLS          LLD           PE         DRHO        GR_DT          DTC
# ...
    499.70000   1213.35780   1931.20010    729.61340      0.00000     12.25000     -1.76100     12.06590     77.11130    103.34650      2.20920     49.65970      2.84360      6.78120      9.36390      3.30890      0.05510    113.96440    141.66220
    499.80000   1200.23720   1931.01380    729.55350      0.00000     12.25000     -2.20540     11.97800     78.43850    104.57110      2.17710     47.84280      2.75630      6.45840      8.90040      3.20200      0.05220    116.92560    145.07050
    499.90000   1207.06670   1930.82920    729.49520      0.00000     12.25000     -2.42860     11.96300     79.78650    108.02700      2.14180     49.55520      2.70080      6.26410      8.59420      3.11780      0.05150    120.47530    148.59700
    500.00000   1218.67810   1930.46260    729.38130      0.00000     12.25000     -2.42080     11.95490     83.48360    114.52160      2.09210     52.13550      2.77720      6.08100      8.23330      2.99420      0.06690    128.46210    151.64750
    500.10000   1214.82750   1930.28020    729.32510      0.00000     12.25000     -2.31330     11.89740     84.88210    117.85470      2.07630     53.45990      2.84350      6.02920      8.11860      2.94700      0.07280    131.74120    153.70050
    500.20000   1220.46080   1930.09790    729.26920      0.00000     12.25000     -2.15930     11.78300     86.26070    119.74370      2.07040     54.51490      2.73600      5.97220      8.00400      2.90850      0.07060    134.05230    155.05640
    500.30000   1234.04710   1929.73490    729.15870      0.00000     12.25000     -2.13320     11.85770     88.46130    121.91420      2.07240     52.86630      2.53390      5.78130      7.70800      2.89270      0.04430    135.62780    155.63690
    500.40000   1219.17040   1929.55360    729.10370      0.00000     12.25000     -2.21710     11.97210     89.35590    121.58650      2.07690     53.02270      2.35590      5.67070      7.55850      2.92350      0.03330    135.16280    155.51920
    500.50000   1208.79610   1929.37260    729.04900      0.00000     12.25000     -2.40270     12.04750     90.07080    120.64860      2.08310     53.61630      2.17200      5.54350      7.38820      2.95610      0.02990    132.39610    154.41270
    500.60000   1212.42000   1929.01210    728.94120      0.00000     12.25000     -2.90370     12.06460     91.16500    121.11610      2.10420     57.95080      2.13100      5.40900      7.19270      2.98160      0.03840    129.02680    152.82080
    500.70000   1197.91600   1928.83220    728.88750      0.00000     12.25000     -3.10040     12.04800     90.74430    122.71840      2.11750     54.71740      2.10290      5.40740      7.16850      2.96560      0.04480    129.20230    150.95280
    500.80000   1240.52470   1928.65170    728.83340      0.00000     12.25000     -3.25620     11.95010     90.56330    123.89900      2.12720     52.11480      2.17560      5.46160      7.23660      2.94040      0.05110    131.78870    149.05200
    500.90000   1223.12740   1928.46970    728.77780      0.00000     12.25000     -3.25370     11.85690     90.62860    124.39090      2.12950     49.43040      2.26320      5.52350      7.31540      2.90180      0.05860    134.45090    147.07100
    501.00000   1218.53200   1928.09880    728.65950      0.00000     12.25000     -2.90880     11.98520     91.47690    121.14490      2.10650     52.31870      2.21570      5.77740      7.67870      2.82300      0.07070    134.07600    145.21180
    501.10000   1209.12160   1927.90950    728.59660      0.00000     12.25000     -2.55530     11.98170     91.73850    119.74860      2.09350     48.47940      2.30090      5.86850      7.82920      2.80190      0.07400    134.47940    143.67980
    501.20000   1220.74010   1927.71790    728.53130      0.00000     12.25000     -2.08070     11.99350     91.86360    117.56520      2.08810     45.29210      2.34280      5.92790      7.95080      2.81640      0.07340    135.44750    142.55920
    501.30000   1214.62820   1927.32640    728.39230      0.00000     12.25000     -1.14990     12.29030     92.79380    114.37370      2.10900     46.26960      2.12110      6.06190      8.22460      2.90340      0.06460    136.14510    141.79000
    501.40000   1222.36890   1927.12490    728.31710      0.00000     12.25000     -0.64870     12.46490     92.96470    114.30250      2.12930     48.10140      2.00020      6.12820      8.37070      2.94640      0.05680    134.78310    141.25840
    501.50000   1229.52510   1926.91870    728.23720      0.00000     12.25000     -0.19520     12.18720     92.56340    116.42860      2.14790     48.68850      2.03190      6.19750      8.52710      2.96950      0.04870    133.95270    140.89950
    501.60000   1222.50200   1926.49410    728.06530      0.00000     12.25000      0.63740     12.11490     92.15650    119.05360      2.16390     47.28640      2.36280      6.41740      8.91590      2.99260      0.03460    131.24290    140.71960
    501.70000   1223.96520   1926.27840    727.97590      0.00000     12.25000      1.00140     12.08440     92.70870    118.72560      2.16140     46.60870      2.44450      6.57660      9.17680      2.99800      0.03090    132.02120    140.73280
    501.80000   1228.81340   1926.06360    727.88730      0.00000     12.25000      1.28380     12.09020     93.36150    117.02030      2.15840     47.58830      2.41110      6.74010      9.45390      3.00140      0.03110    131.23340    140.89920
    501.90000   1229.27250   1925.64510    727.72150      0.00000     12.25000      1.75040     12.20540     93.91290    113.61290      2.16550     46.19120      2.42270      7.05360      9.98170      2.96250      0.03280    132.94180    141.11920
    502.00000   1220.82640   1925.44240    727.64510      0.00000     12.25000      1.87500     12.19460     93.52990    112.58970      2.17440     43.82290      2.41020      7.20190     10.24280      2.93200      0.03140    132.79950    141.28080
    502.10000   1224.10490   1925.24350    727.57250      0.00000     12.25000      1.99530     12.04180     92.71990    112.18960      2.18530     43.07710      2.62250      7.31770     10.47000      2.89710      0.02660    135.58990    141.29620
    502.20000   1221.48500   1924.85240    727.43400      0.00000     12.25000      2.08770     11.97400     90.37030    111.65510      2.20250     42.95740      2.95780      7.46300     10.78650      2.83090      0.01830    133.10320    141.11230
    502.30000   1226.87790   1924.65780    727.36580      0.00000     12.25000      2.01150     12.00740     88.48380    112.19450      2.20770     40.51000      2.93070      7.51930     10.89620      2.79310      0.01650    130.20840    140.70540
    502.40000   1218.03320   1924.46330    727.29750      0.00000     12.25000      1.94830     12.01320     86.69450    112.70120      2.20910     40.48780      2.99720      7.54590     10.95100      2.76360      0.01620    128.74200    140.08530
    502.50000   1219.01060   1924.26860    727.22920      0.00000     12.25000      1.87490     12.01160     84.97680    113.75720      2.20800     38.95070      3.09930      7.55800     11.00110      2.75250      0.01590    131.25720    139.30960
    502.60000   1248.51160   1923.87820    727.09140      0.00000     12.25000      1.82200     12.07520     81.82420    112.80780      2.20920     39.57040      3.11380      7.58620     11.07440      2.80980      0.01420    131.88830    138.47280
    502.70000   1219.21000   1923.68270    727.02220      0.00000     12.25000      1.96920     12.09550     79.99130    110.78220      2.21130     39.62430      3.12940      7.59140     11.10270      2.85010      0.01240    129.36840    137.67370
    502.80000   1223.29370   1923.48730    726.95310      0.00000     12.25000      2.22200     12.13930     77.78120    107.23990      2.21290     39.81730      3.01760      7.58200     11.11570      2.86780      0.01050    120.16210    136.97570
    502.90000   1214.40870   1923.09730    726.81570      0.00000     12.25000      3.02140     12.11380     75.74760     99.97470      2.20580     39.84050      2.83550      7.58590     11.27690      2.81020      0.00670    115.68700    136.38820
