~Version
 VERS.        2.0                                          :CWLS Log ASCII Standard - Version 2.0
 WRAP.        NO                                           :One data record per depth sample.
~Well
#MNEM.UNIT      VALUE                    DESCRIPTION
#---------      ----------               -----------
 STRT.M       272.00000                                                                                      :START DEPTH
 STOP.M       1226.40000                                                                                     :STOP DEPTH
 STEP.M       0.10000                                                                                        :STEP
 NULL.        -999.25000                                                                                     :NULL VALUE
 COMP.                                                                                                       :Oil Company
 WELL.        INDARA-1                                                                                       :Non unique well name
  FLD.        N-INDR                                                                                         :Field name
  LOC.        83.629417, 26.008328                                                                           :Location
 PROV.                                                                                                       :Province
 SRVC.                                                                                                       :Service
 DATE.        2013-11-29                                                                                     :Date unloaded
  UWI.        N-INDR-1                                                                                       :Unique well id
~Curve
#MNEM.UNIT    VALUE                                        :DESCRIPTION
#----.----    ---------------                              :-------------------
 DEPT.M       00 001 00 00                                 :Depth Index
 TENS.LBS                                                  :
 BHVT.FT3                                                  :
 AHVT.FT3                                                  :
  MMK.00                                                   :
   BS.IN                                                   :
   SP.MV                                                   :
 CALI.IN                                                   :
 GRTC.API                                                  :
   GR.API                                                  :
 RHOB.G/CC                                                 :
 NPHI.PU                                                   :
 MSFL.OHMM                                                 :
  LLS.OHMM                                                 :
  LLD.OHMM                                                 :
   PE.00                                                   :
 DRHO.G/CC                                                 :
GR_DT.API                                                  :
  DTC.00                                                   :
~A       TENS         BHVT         AHVT          MMK           BS           SP         CALI         GRTC           GR         RHOB         NPHI         MSFL          LLS          LLD           PE         DRHO        GR_DT          DTC
# ...
   1037.60000   1848.97390    509.72560    199.82870      0.00000     12.25000     -0.17110     12.20760     47.14690     79.80980      2.13680     36.14820      1.77350      2.10390      2.56410      2.92130     -0.03340     88.39540    127.78440
   1037.70000   1843.54060    509.53520    199.76460      1.00000     12.25000     -0.22470     12.19600     46.95480     79.44320      2.14350     35.84430      1.72100      2.10420      2.56390      2.97670     -0.03560     86.58730    128.06090
   1037.80000   1852.29190    509.34460    199.70030      0.00000     12.25000     -0.27080     12.18590     46.87200     78.10100      2.14580     37.76390      1.70290      2.10280      2.56020      3.00050     -0.03820     89.10250    128.36880
   1037.90000   1884.93880    508.96460    199.57300      0.00000     12.25000     -0.33740     12.18760     46.98420     75.54060      2.13560     39.32710      1.66080      2.09390      2.55430      2.93960     -0.04110     90.51190    128.61550
   1038.00000   1855.13200    508.77550    199.51020      0.00000     12.25000     -0.31670     12.15470     47.48020     75.02290      2.12990     36.87700      1.63280      2.08290      2.54490      2.87270     -0.04050     91.20950    128.77020
   1038.10000   1850.68970    508.58690    199.44790      0.00000     12.25000     -0.35480     12.13820     48.24310     74.12340      2.12450     36.56670      1.66500      2.06840      2.53100      2.80340     -0.03920     88.86520    128.85220
   1038.20000   1845.67540    508.20850    199.32220      0.00000     12.25000     -0.53660     12.18740     50.26780     74.56730      2.12260     37.72770      1.68810      2.02960      2.50320      2.74120     -0.03520     81.74680    128.89430
   1038.30000   1861.53610    508.01790    199.25790      0.00000     12.25000     -0.75730     12.18230     51.75010     75.49500      2.12490     36.73300      1.71480      2.01380      2.49680      2.75740     -0.03210     82.16450    128.91980
   1038.40000   1843.47380    507.82660    199.19290      0.00000     12.25000     -0.99970     12.19640     54.04070     77.76600      2.13000     35.78730      1.70360      2.00410      2.49910      2.79710     -0.02780     84.04370    128.94570
   1038.50000   1858.96240    507.44200    199.06100      0.00000     12.25000     -1.64370     12.21060     60.77680     82.33850      2.14730     38.25780      1.46940      2.01320      2.52590      2.87780     -0.01680     90.34580    128.98820
   1038.60000   1849.36620    507.24950    198.99480      0.00000     12.25000     -2.04100     12.20640     63.98840     85.71880      2.15740     39.50450      1.47580      2.03210      2.55610      2.91040     -0.01120     89.70040    129.06150
   1038.70000   1862.91940    507.05730    198.92880      0.00000     12.25000     -2.43730     12.21040     66.88610     89.78180      2.16640     39.22810      1.57300      2.06160      2.59320      2.94580     -0.00640     91.36130    129.17270
   1038.80000   1859.10850    506.67490    198.79910      0.00000     12.25000     -3.33170     12.26640     71.69880    101.38420      2.17270     39.51800      2.13710      2.13810      2.67950      2.99490     -0.00070     93.62970    129.32230
   1038.90000   1864.40920    506.48560    198.73620      0.00000     12.25000     -3.67410     12.26870     72.90000    105.46240      2.17390     39.78780      2.26910      2.17560      2.71490      2.99390      0.00100     96.26820    129.50120
   1039.00000   1854.18120    506.29820    198.67500      0.00000     12.25000     -3.93820     12.27730     72.89610    107.26500      2.17480     43.33170      2.27420      2.20070      2.74030      2.97320      0.00310     98.25190    129.67810
   1039.10000   1856.16260    506.11220    198.61540      0.00000     12.25000     -4.13090     12.30170     72.30590    105.01150      2.17810     44.99060      2.26430      2.22300      2.76260      2.95800      0.00570    103.17780    129.78840
   1039.20000   1855.11180    505.73950    198.49530      0.00000     12.25000     -4.30580     12.20670     71.42390    100.14620      2.18770     42.82150      1.99840      2.25770      2.79650      2.96880      0.01100    104.05090    129.74930
   1039.30000   1891.74820    505.55110    198.43320      0.00000     12.25000     -4.35460     12.21170     71.64220     98.71140      2.19390     40.86950      1.93830      2.27180      2.81130      2.98540      0.01300    103.96550    129.50310
   1039.40000   1902.57510    505.36020    198.36860      0.00000     12.25000     -4.36470     12.20260     72.27340     98.52980      2.19990     38.96420      1.88690      2.28440      2.83020      2.99820      0.01410    105.24680    129.06100
   1039.50000   1854.11430    504.96960    198.23070      0.00000     12.25000     -4.33860     12.24060     72.56830     96.81630      2.20650     43.15600      1.86070      2.32020      2.87890      3.02090      0.01590    105.80680    128.50220
   1039.60000   1847.81010    504.77020    198.15760      0.00000     12.25000     -4.22860     12.16160     72.47240     96.31030      2.20480     44.78370      1.87290      2.34530      2.90840      3.04660      0.01570    105.89220    127.92240
   1039.70000   1899.66240    504.56810    198.08180      0.00000     12.25000     -4.12270     12.10230     72.62930     96.66290      2.20130     43.45700      1.95780      2.36440      2.93320      3.07040      0.01500    104.35470    127.36430
   1039.80000   1881.50710    504.15980    197.92610      0.00000     12.25000     -3.94680     12.03440     71.64460    100.15200      2.19980     40.12960      2.04040      2.37820      2.95570      3.07830      0.01230    103.83260    126.79780
   1039.90000   1856.92110    503.95650    197.84920      0.00000     12.25000     -3.83810     12.00580     71.31240    101.41340      2.20000     39.30440      1.99570      2.37010      2.94390      3.05440      0.01070    105.45560    126.15800
   1040.00000   1875.87450    503.75560    197.77460      0.00000     12.25000     -3.73780     12.00700     71.40690    100.90400      2.19680     39.19710      1.98460      2.35420      2.92220      3.01540      0.00920    108.04670    125.40420
   1040.10000   1876.24010    503.36260    197.63430      0.00000     12.25000     -3.29980     12.02740     69.14710     94.96570      2.17340     39.16430      1.91380      2.29220      2.84650      2.88120      0.00570    107.04060    124.55870
   1040.20000   1898.02640    503.16980    197.56780      0.00000     12.25000     -3.00900     12.02010     66.54380     90.75160      2.15490     38.73750      1.89160      2.25790      2.80580      2.80490      0.00400    105.34170    123.71910
   1040.30000   1873.88590    502.97860    197.50290      0.00000     12.25000     -2.66040     12.01920     63.87300     87.44170      2.13890     38.77010      1.90440      2.22800      2.76700      2.74150      0.00230    104.80070    123.01690
   1040.40000   1895.64550    502.59840    197.37530      0.00000     12.25000     -2.04490     11.99980     58.53450     82.15580      2.11820     38.66260      1.93160      2.19150      2.72500      2.70800     -0.00060    102.40900    122.53600
   1040.50000   1839.55050    502.40870    197.31200      0.00000     12.25000     -1.76570     12.03670     56.39620     80.71870      2.11620     39.57460      1.97060      2.18410      2.72190      2.72870     -0.00110     99.26740    122.25600
   1040.60000   1906.67820    502.21920    197.24880      0.00000     12.25000     -1.53910     12.08460     55.11210     79.70680      2.11540     40.90160      1.94870      2.18690      2.72650      2.75300     -0.00160     95.44250    122.11170
   1040.70000   1881.79280    502.02980    197.18560      0.00000     12.25000     -1.34010     12.09290     54.67300     80.11200      2.11560     40.07330      1.92100      2.19510      2.73930      2.77050     -0.00160     91.05760    122.08910
   1040.80000   1853.07060    501.65050    197.05900      0.00000     12.25000     -1.00530     12.10780     55.76360     80.53010      2.11140     39.43930      1.84550      2.21390      2.77020      2.74290     -0.00300     89.63400    122.24370
