~Version
 VERS.        2.0                                          :CWLS Log ASCII Standard - Version 2.0
 WRAP.        NO                                           :One data record per depth sample.
~Well
#MNEM.UNIT      VALUE                    DESCRIPTION
#---------      ----------               -----------
 STRT.M       272.00000                                                                                      :START DEPTH
 STOP.M       1226.40000                                                                                     :STOP DEPTH
 STEP.M       0.10000                                                                                        :STEP
 NULL.        -999.25000                                                                                     :NULL VALUE
 COMP.                                                                                                       :Oil Company
 WELL.        INDARA-1                                                                                       :Non unique well name
  FLD.        N-INDR                                                                                         :Field name
  LOC.        83.629417, 26.008328                                                                           :Location
 PROV.                                                                                                       :Province
 SRVC.                                                                                                       :Service
 DATE.        2013-11-29                                                                                     :Date unloaded
  UWI.        N-INDR-1                                                                                       :Unique well id
~Curve
#MNEM.UNIT    VALUE                                        :DESCRIPTION
#----.----    ---------------                              :-------------------
 DEPT.M       00 001 00 00                                 :Depth Index
 TENS.LBS                                                  :
 BHVT.FT3                                                  :
 AHVT.FT3                                                  :
  MMK.00                                                   :
   BS.IN                                                   :
   SP.MV                                                   :
 CALI.IN                                                   :
 GRTC.API                                                  :
   GR.API                                                  :
 RHOB.G/CC                                                 :
 NPHI.PU                                                   :
 MSFL.OHMM                                                 :
  LLS.OHMM                                                 :
  LLD.OHMM                                                 :
   PE.00                                                   :
 DRHO.G/CC                                                 :
GR_DT.API                                                  :
  DTC.00                                                   :
~A       TENS         BHVT         AHVT          MMK           BS           SP         CALI         GRTC           GR         RHOB         NPHI         MSFL          LLS          LLD           PE         DRHO        GR_DT          DTC
# ...
    978.20000   1785.00440    661.31230    252.88660      0.00000     12.25000     -9.19230     12.18090     43.97260     71.88990      2.07760     47.02630      1.48450      2.16440      2.77370      2.41890     -0.00980     82.06010    130.37700
    978.30000   1780.72850    660.92810    252.75500      0.00000     12.25000     -9.21930     12.17960     43.51540     71.63690      2.08550     45.98700      1.46580      2.16360      2.77490      2.49130     -0.00990     85.75210    130.43310
    978.40000   1787.55150    660.73590    252.68910      0.00000     12.25000     -9.21200     12.17850     43.52320     72.26700      2.08320     44.77740      1.47570      2.16760      2.77980      2.51570     -0.01030     84.44230    130.54540
    978.50000   1782.26440    660.54360    252.62310      0.00000     12.25000     -9.21130     12.18250     43.74440     73.46990      2.07810     42.45950      1.48340      2.17200      2.78670      2.51710     -0.01070     80.57940    130.67630
    978.60000   1771.57070    660.15830    252.49040      0.00000     12.25000     -9.18940     12.17700     45.28810     77.40880      2.07180     43.05500      1.52710      2.18900      2.80510      2.49610     -0.01200     75.53970    130.76900
    978.70000   1778.37430    659.96550    252.42380      0.00000     12.25000     -9.19990     12.17620     46.30380     78.08340      2.07490     43.86240      1.50930      2.20050      2.82170      2.48430     -0.01230     76.53620    130.77860
    978.80000   1777.45650    659.77260    252.35730      0.00000     12.25000     -9.18330     12.16970     47.10600     78.27550      2.08000     44.29030      1.51080      2.21450      2.84240      2.48030     -0.01250     78.87100    130.69490
    978.90000   1772.35580    659.57990    252.29090      0.00000     12.25000     -9.19270     12.16190     48.04100     77.04450      2.08270     44.00900      1.53510      2.23190      2.86320      2.47850     -0.01310     83.35080    130.54140
    979.00000   1779.81080    659.19510    252.15870      0.00000     12.25000     -9.23180     12.17770     48.90230     76.81610      2.08510     44.85130      1.58610      2.26120      2.90110      2.48900     -0.01350     84.72710    130.35870
    979.10000   1779.41860    659.00280    252.09270      0.00000     12.25000     -9.26670     12.17730     48.82980     77.44740      2.08600     45.65200      1.68260      2.27280      2.91580      2.49670     -0.01330     86.03680    130.18790
    979.20000   1779.57760    658.81050    252.02670      0.00000     12.25000     -9.30700     12.17970     48.52500     79.04270      2.08920     44.83990      1.72480      2.28140      2.93070      2.50640     -0.01260     86.46390    130.06260
    979.30000   1778.84630    658.42490    251.89370      0.00000     12.25000     -9.31470     12.16870     47.44250     79.57090      2.09490     42.74850      1.73530      2.27680      2.92440      2.54290     -0.01110     85.25860    130.00020
    979.40000   1777.25720    658.23170    251.82690      0.00000     12.25000     -9.32760     12.17150     47.36600     78.65260      2.09600     42.29040      1.69860      2.26350      2.90810      2.56150     -0.01040     84.35690    129.99680
    979.50000   1783.35550    658.03840    251.75990      0.00000     12.25000     -9.33870     12.17780     47.29120     77.81400      2.09620     41.96270      1.58200      2.24840      2.88900      2.57500     -0.00980     82.70550    130.02920
    979.60000   1776.71810    657.65160    251.62570      0.00000     12.25000     -9.35840     12.18250     47.17300     77.01520      2.09430     42.45740      1.50610      2.22000      2.85150      2.57370     -0.00930     82.85730    130.06290
    979.70000   1785.64280    657.45820    251.55870      0.00000     12.25000     -9.35990     12.18320     47.10830     77.68050      2.09230     42.46080      1.49720      2.20850      2.83840      2.56910     -0.00970     83.16100    130.06410
    979.80000   1778.18140    657.26480    251.49150      0.00000     12.25000     -9.35220     12.18520     47.25890     77.84450      2.08930     41.98390      1.54740      2.20240      2.82970      2.56210     -0.01040     84.36640    130.00510
    979.90000   1787.88400    656.87760    251.35700      0.00000     12.25000     -9.38780     12.18510     46.98810     78.48050      2.08980     40.63700      1.64310      2.20850      2.83120      2.51930     -0.01110     85.73310    129.86710
    980.00000   1755.21770    656.68370    251.28950      0.00000     12.25000     -9.39190     12.18840     46.53050     77.47670      2.09220     39.11730      1.63390      2.21580      2.83890      2.48070     -0.01090     84.42330    129.64260
    980.10000   1824.80690    656.48970    251.22180      0.00000     12.25000     -9.37600     12.19370     45.88160     76.22110      2.09680     38.44570      1.64440      2.22400      2.84960      2.43620     -0.01040     81.20590    129.34280
    980.20000   1789.77910    656.10120    251.08590      0.00000     12.25000     -9.16920     12.19790     45.15240     73.93130      2.10270     38.18310      1.61850      2.23870      2.86200      2.37680     -0.00960     75.16950    129.00420
    980.30000   1778.93920    655.90690    251.01800      0.00000     12.25000     -9.08970     12.19220     45.09420     74.08360      2.10760     39.70770      1.62440      2.24320      2.86480      2.37430     -0.00860     74.71390    128.68210
    980.40000   1808.83900    655.71260    250.95000      0.00000     12.25000     -9.03370     12.18930     45.34670     75.49260      2.11230     41.01570      1.66770      2.24900      2.86630      2.39950     -0.00740     77.36200    128.43290
    980.50000   1792.23340    655.51860    250.88230      0.00000     12.25000     -8.96110     12.19620     45.54050     77.83510      2.11730     42.13490      1.66430      2.24960      2.86670      2.44630     -0.00580     84.50880    128.29000
    980.60000   1792.72560    655.13130    250.74770      0.00000     12.25000     -9.00130     12.20300     45.28420     80.31930      2.12600     39.77540      1.69670      2.25410      2.86570      2.59570     -0.00320     87.35610    128.25610
    980.70000   1776.92470    654.93810    250.68080      0.00000     12.25000     -8.96450     12.20800     45.10030     79.47250      2.12650     37.65430      1.69470      2.25750      2.86390      2.66020     -0.00250     89.29230    128.31240
    980.80000   1785.84220    654.74520    250.61420      0.00000     12.25000     -8.93090     12.21770     45.34620     77.72270      2.12540     38.55960      1.70420      2.26290      2.86190      2.70030     -0.00200     88.65830    128.43820
    980.90000   1774.43730    654.35970    250.48130      0.00000     12.25000     -8.97280     12.21170     44.53170     75.99860      2.11780     41.80310      1.69150      2.26500      2.85550      2.67040     -0.00200     83.65360    128.62130
    981.00000   1797.54060    654.16690    250.41490      0.00000     12.25000     -9.01380     12.18870     44.00640     76.38750      2.11470     39.33660      1.65850      2.26530      2.85010      2.61490     -0.00260     79.75330    128.84960
    981.10000   1783.23540    653.97420    250.34850      0.00000     12.25000     -9.10180     12.17920     43.69550     77.06910      2.11050     38.42540      1.60210      2.26340      2.84230      2.55020     -0.00390     77.97690    129.10100
    981.20000   1791.44890    653.58910    250.21600      0.00000     12.25000     -9.15670     12.17770     43.79750     76.22460      2.10370     37.93140      1.52130      2.25390      2.82720      2.45560     -0.00810     76.58610    129.34260
    981.30000   1788.38930    653.39620    250.14950      0.00000     12.25000     -9.12670     12.19940     44.10100     74.97020      2.10100     38.35030      1.53270      2.24740      2.81770      2.45570     -0.01040     77.41180    129.54860
    981.40000   1793.93550    653.20320    250.08270      0.00000     12.25000     -9.09550     12.20380     44.66210     73.90440      2.10110     37.80670      1.46860      2.24650      2.81140      2.48040     -0.01280     77.97190    129.71620
