~Version
 VERS.        2.0                                          :CWLS Log ASCII Standard - Version 2.0
 WRAP.        NO                                           :One data record per depth sample.
~Well
#MNEM.UNIT      VALUE                    DESCRIPTION
#---------      ----------               -----------
 STRT.M       272.00000                                                                                      :START DEPTH
 STOP.M       1226.40000                                                                                     :STOP DEPTH
 STEP.M       0.10000                                                                                        :STEP
 NULL.        -999.25000                                                                                     :NULL VALUE
 COMP.                                                                                                       :Oil Company
 WELL.        INDARA-1                                                                                       :Non unique well name
  FLD.        N-INDR                                                                                         :Field name
  LOC.        83.629417, 26.008328                                                                           :Location
 PROV.                                                                                                       :Province
 SRVC.                                                                                                       :Service
 DATE.        2013-11-29                                                                                     :Date unloaded
  UWI.        N-INDR-1                                                                                       :Unique well id
~Curve
#MNEM.UNIT    VALUE                                        :DESCRIPTION
#----.----    ---------------                              :-------------------
 DEPT.M       00 001 00 00                                 :Depth Index
 TENS.LBS                                                  :
 BHVT.FT3                                                  :
 AHVT.FT3                                                  :
  MMK.00                                                   :
   BS.IN                                                   :
   SP.MV                                                   :
 CALI.IN                                                   :
 GRTC.API                                                  :
   GR.API                                                  :
 RHOB.G/CC                                                 :
 NPHI.PU                                                   :
 MSFL.OHMM                                                 :
  LLS.OHMM                                                 :
  LLD.OHMM                                                 :
   PE.00                                                   :
 DRHO.G/CC                                                 :
GR_DT.API                                                  :
  DTC.00                                                   :
~A       TENS         BHVT         AHVT          MMK           BS           SP         CALI         GRTC           GR         RHOB         NPHI         MSFL          LLS          LLD           PE         DRHO        GR_DT          DTC
# ...
   1100.30000   1943.20870    340.39300    134.45720      0.00000     12.25000      6.06250     12.42260     79.26630    114.35220      2.15910     47.12250      2.23300      3.32790      4.17030      2.77650      0.05740    130.96770    113.12420
   1100.40000   1952.37890    340.17570    134.36630      0.00000     12.25000      6.17920     12.29740     77.37720    111.62790      2.15010     45.09210      2.42130      3.28880      4.11940      2.66000      0.07870    128.81320    109.72630
   1100.50000   1945.96180    339.96060    134.27750      0.00000     12.25000      6.28450     12.34930     75.43690    108.46200      2.15540     43.69840      2.40460      3.25670      4.07340      2.51860      0.09970    128.28170    106.88180
   1100.60000   1958.67080    339.54160    134.11120      0.00000     12.25000      6.54740     12.17820     70.90040     99.04050      2.19920     44.85470      2.37260      3.12070      3.90650      2.33070      0.10330    129.93320    104.91030
   1100.70000   1952.92440    339.33770    134.03360      0.00000     12.25000      6.73970     12.11060     68.06330     94.89660      2.21700     42.81720      2.36200      3.07570      3.85440      2.32540      0.08090    129.24030    104.12380
   1100.80000   1961.22440    339.13580    133.95800      0.00000     12.25000      6.92570     12.13250     65.51750     90.65320      2.21750     39.67300      2.15540      2.98480      3.73610      2.35280      0.05100    126.25060    104.64880
   1100.90000   1949.89870    338.73500    133.80980      0.00000     12.25000      7.20900     12.11160     61.42800     86.25050      2.18240     40.46080      2.62020      2.93910      3.65870      2.37390      0.00770    110.45740    106.34940
   1101.00000   1939.15820    338.53540    133.73660      0.00000     12.25000      7.18730     12.08350     59.76030     84.66110      2.17270     42.01910      2.85080      2.94300      3.65450      2.36400      0.00010    101.98190    108.94700
   1101.10000   1962.06210    338.33570    133.66320      0.00000     12.25000      7.09100     12.07270     58.39740     84.53110      2.17760     40.52600      2.82070      2.95100      3.65870      2.37170     -0.00150     96.68580    110.96350
   1101.20000   1969.27100    338.13590    133.58970      0.00000     12.25000      6.99720     12.07640     57.62090     84.41050      2.19580     39.34060      2.78330      2.96060      3.66780      2.39290      0.00000     93.91440    112.29560
   1101.30000   1970.83350    337.73650    133.44300      0.00000     12.25000      6.76780     12.09440     57.95530     83.37630      2.22350     40.33610      2.42210      3.02580      3.77000      2.41130      0.00320     95.04390    112.93860
   1101.40000   1961.61010    337.53690    133.36970      0.00000     12.25000      6.73390     12.10590     58.86200     82.81290      2.22020     41.45660      2.38770      3.06650      3.83640      2.38540      0.00400     95.15780    113.50620
   1101.50000   1948.93430    337.33720    133.29630      0.00000     12.25000      6.66980     12.11180     60.04750     83.57890      2.21060     41.46380      2.53950      3.13410      3.92280      2.36140      0.00410     96.06890    113.98110
   1101.60000   1938.28740    336.93680    133.14850      0.00000     12.25000      6.38380     12.10770     62.73920     88.48990      2.21180     42.05060      2.85110      3.22880      4.02160      2.40890      0.00650     95.42350    114.39890
   1101.70000   1971.48560    336.73620    133.07430      0.00000     12.25000      6.21950     12.15090     63.91320     91.73310      2.22660     40.34090      2.91270      3.21530      3.99840      2.47830      0.00880     97.57800    114.81690
   1101.80000   1947.48470    336.53560    133.00000      0.00000     12.25000      6.05940     12.14400     64.35170     94.30980      2.24180     38.22570      2.88180      3.17750      3.94790      2.54960      0.01000    100.93790    115.27840
   1101.90000   1978.97360    336.13540    132.85240      0.00000     12.25000      5.97440     12.16130     63.54190     96.02220      2.25310     41.11470      2.66960      3.06160      3.80400      2.61140      0.00700    108.22700    115.79950
   1102.00000   1941.79170    335.93580    132.77910      0.00000     12.25000      6.03120     12.18670     62.36000     94.42700      2.24750     43.65050      2.47370      2.96050      3.69080      2.59210      0.00460    107.41080    116.38940
   1102.10000   1943.84010    335.73650    132.70610      0.00000     12.25000      6.16470     12.18770     61.33350     90.57360      2.23880     42.74030      2.33510      2.85890      3.58440      2.54300      0.00370    102.31410    117.03620
   1102.20000   1941.64560    335.33780    132.56010      0.00000     12.25000      6.28890     12.19620     59.73340     83.26730      2.20850     41.58690      2.31260      2.76780      3.49900      2.39870      0.00470     91.18100    117.68050
   1102.30000   1969.46390    335.13790    132.48650      0.00000     12.25000      6.25510     12.22110     59.82780     82.02930      2.19450     41.69460      2.33720      2.78980      3.52450      2.33520      0.00510     88.95060    118.22800
   1102.40000   1977.01880    334.93700    132.41190      0.00000     12.25000      6.16230     12.24730     60.76000     83.17480      2.18190     41.84360      2.36900      2.82780      3.57180      2.30670      0.00520     90.48820    118.60420
   1102.50000   1937.15660    334.53230    132.25990      0.00000     12.25000      5.82880     12.30110     63.40200     88.82260      2.18970     41.69310      2.53660      2.90950      3.67900      2.36660      0.00940     97.66340    118.78960
   1102.60000   1988.45030    334.32930    132.18320      0.00000     12.25000      5.76100     12.38690     64.47060     91.90640      2.20320     40.89930      2.51090      2.95100      3.73240      2.43650      0.01310    102.36150    118.78390
   1102.70000   1944.55830    334.12670    132.10680      0.00000     12.25000      5.76470     12.51630     65.20880     93.99590      2.22300     40.37060      2.54470      2.97830      3.77370      2.49930      0.01650    105.09500    118.56390
   1102.80000   1963.62480    333.92490    132.03130      0.00000     12.25000      5.85430     12.31190     65.83140     94.81820      2.23720     39.78230      2.55320      2.99250      3.80010      2.54920      0.01790    106.20540    118.10400
   1102.90000   1966.45830    333.52410    131.88320      0.00000     12.25000      5.99390     12.32330     66.26740     91.90530      2.25080     41.80360      2.47380      3.03740      3.86060      2.56930      0.01640    105.09500    117.45570
   1103.00000   1943.37500    333.32450    131.80990      0.00000     12.25000      5.98760     12.32990     66.23660     90.83590      2.24900     41.15310      2.58750      3.09550      3.93460      2.55830      0.01510    103.07330    116.75990
   1103.10000   1938.79910    333.12450    131.73630      0.00000     12.25000      5.92470     12.29330     66.15510     91.82210      2.24960     40.71660      2.71560      3.14660      3.99890      2.53960      0.01520     99.70400    116.18340
   1103.20000   1943.73350    332.72150    131.58590      0.00000     12.25000      5.63560     12.20860     66.94690     95.87460      2.25300     41.69120      3.10810      3.38150      4.29050      2.53630      0.01700     97.62550    115.80070
   1103.30000   1926.35640    332.51780    131.50850      0.00000     12.25000      5.50330     12.20280     67.09770     97.92310      2.25710     41.61130      3.20420      3.47060      4.39760      2.53830      0.01980    101.66870    115.59030
   1103.40000   1939.27830    332.31290    131.42990      0.00000     12.25000      5.30510     12.19170     67.26570     98.67860      2.25680     41.48790      3.27280      3.48610      4.42630      2.51850      0.02410    107.67180    115.47660
   1103.50000   1935.32780    331.90340    131.27310      0.00000     12.25000      4.98090     12.25030     68.23370    100.85710      2.25010     39.38770      3.30410      3.44350      4.37460      2.42440      0.03630    113.99290    115.41380
