~Version
 VERS.        2.0                                          :CWLS Log ASCII Standard - Version 2.0
 WRAP.        NO                                           :One data record per depth sample.
~Well
#MNEM.UNIT      VALUE                    DESCRIPTION
#---------      ----------               -----------
 STRT.M       272.00000                                                                                      :START DEPTH
 STOP.M       1226.40000                                                                                     :STOP DEPTH
 STEP.M       0.10000                                                                                        :STEP
 NULL.        -999.25000                                                                                     :NULL VALUE
 COMP.                                                                                                       :Oil Company
 WELL.        INDARA-1                                                                                       :Non unique well name
  FLD.        N-INDR                                                                                         :Field name
  LOC.        83.629417, 26.008328                                                                           :Location
 PROV.                                                                                                       :Province
 SRVC.                                                                                                       :Service
 DATE.        2013-11-29                                                                                     :Date unloaded
  UWI.        N-INDR-1                                                                                       :Unique well id
~Curve
#MNEM.UNIT    VALUE                                        :DESCRIPTION
#----.----    ---------------                              :-------------------
 DEPT.M       00 001 00 00                                 :Depth Index
 TENS.LBS                                                  :
 BHVT.FT3                                                  :
 AHVT.FT3                                                  :
  MMK.00                                                   :
   BS.IN                                                   :
   SP.MV                                                   :
 CALI.IN                                                   :
 GRTC.API                                                  :
   GR.API                                                  :
 RHOB.G/CC                                                 :
 NPHI.PU                                                   :
 MSFL.OHMM                                                 :
  LLS.OHMM                                                 :
  LLD.OHMM                                                 :
   PE.00                                                   :
 DRHO.G/CC                                                 :
GR_DT.API                                                  :
  DTC.00                                                   :
~A       TENS         BHVT         AHVT          MMK           BS           SP         CALI         GRTC           GR         RHOB         NPHI         MSFL          LLS          LLD           PE         DRHO        GR_DT          DTC
# ...
    677.90000   1471.07710   1449.67300    543.42110      0.00000     12.25000     -2.63500     12.27480     73.04490    109.44300      2.24050     37.21160      4.38900      8.24890     10.88920      2.94370      0.02650    129.18340    100.35730
    678.00000   1449.31750   1449.27360    543.27430      0.00000     12.25000     -2.22140     12.43450     62.39540     89.11680      2.33860     31.15710      5.29330     10.29040     13.73440      3.34530      0.03080    112.04240     97.73950
    678.10000   1439.40830   1449.07350    543.20060      0.00000     12.25000     -2.01740     12.33560     58.02520     81.71660      2.37290     29.27380      5.40850     11.17040     15.20950      3.50170      0.03510     99.91280     95.88730
    678.20000   1447.95370   1448.87340    543.12680      0.00000     12.25000     -1.85230     12.22380     54.84580     77.72710      2.39060     28.14800      5.14480     11.82910     16.41770      3.55370      0.04240     91.32860     95.37180
    678.30000   1433.46330   1448.47330    542.97930      0.00000     12.25000     -1.75890     12.12370     53.17340     75.31180      2.38750     27.30320      5.11610     12.07830     16.96870      3.48690      0.05910     83.15900     96.65170
    678.40000   1447.80750   1448.27380    542.90610      0.00000     12.25000     -1.82560     12.18320     54.17120     75.65610      2.38150     28.36470      4.26350     11.74240     16.40380      3.44630      0.06340     81.76820     99.24310
    678.50000   1447.84070   1448.07520    542.83390      0.00000     12.25000     -2.01970     12.19110     55.15360     76.68420      2.37260     30.48260      3.80000     10.94370     15.13680      3.46290      0.06160     81.54310    102.66180
    678.60000   1459.05980   1447.68100    542.69230      0.00000     12.25000     -2.38850     12.23310     56.80390     80.38020      2.34710     32.96150      3.05410      9.32140     12.82490      3.52590      0.05230     84.84340    106.52890
    678.70000   1451.66460   1447.48490    542.62240      0.00000     12.25000     -2.51450     12.21190     57.78230     82.51020      2.32910     33.63920      2.85070      8.49510     11.74480      3.50050      0.05360     85.44840    110.55750
    678.80000   1448.17320   1447.28860    542.55240      0.00000     12.25000     -2.60780     12.16320     59.22870     85.16500      2.30570     35.10300      2.62260      7.80920     10.85620      3.43070      0.05930     86.41650    114.25610
    678.90000   1435.43180   1447.09170    542.48180      0.00000     12.25000     -2.64960     12.13350     61.49880     88.32810      2.28620     36.87300      2.51030      7.28400     10.15670      3.34200      0.06610     91.08610    117.19960
    679.00000   1468.08450   1446.69570    542.33850      0.00000     12.25000     -2.68580     12.13140     64.42530     94.63120      2.25760     39.68410      2.82140      6.72460      9.30170      3.23800      0.07200     95.01540    119.93790
    679.10000   1463.68840   1446.49670    542.26590      0.00000     12.25000     -2.72870     12.23220     66.04120     98.16000      2.25560     39.40490      3.05330      6.50830      8.94260      3.21490      0.06750     98.16650    123.02600
    679.20000   1457.14470   1446.29700    542.19250      0.00000     12.25000     -2.75310     12.32190     68.37730    100.21460      2.25630     39.40000      2.91570      6.37240      8.70400      3.21630      0.06190    100.17860    126.75980
    679.30000   1438.35100   1445.89140    542.03940      0.00000     12.25000     -2.79240     12.41220     72.96930    104.29750      2.25110     39.74840      2.56620      6.09160      8.22420      3.21450      0.05580    103.82320    130.17010
    679.40000   1461.79980   1445.68380    541.95820      0.00000     12.25000     -2.71470     12.43370     75.41330    107.42940      2.24320     37.92550      2.21660      5.95720      8.00690      3.20450      0.06420    105.65490    132.89790
    679.50000   1466.28220   1445.47300    541.87370      0.00000     12.25000     -2.56420     12.43570     78.08910    111.29270      2.22860     39.20120      2.10400      5.86310      7.84500      3.16660      0.08110    109.05270    134.87740
    679.60000   1509.70860   1445.04190    541.69530      0.00000     12.25000     -1.99440     12.91560     84.04230    116.81530      2.17510     41.18740      2.60240      5.81220      7.70200      3.03180      0.12380    114.26340    136.68340
    679.70000   1458.16880   1444.82430    541.60410      0.00000     12.25000     -1.65260     12.98310     85.66490    118.42230      2.14140     41.89210      2.70960      5.85230      7.70430      2.93450      0.13850    118.07880    138.44710
    679.80000   1471.21020   1444.60790    541.51390      0.00000     12.25000     -1.33940     12.73620     86.76710    119.82750      2.10850     42.70600      2.83860      5.89040      7.72510      2.83390      0.14090    120.98310    140.11540
    679.90000   1439.84730   1444.18160    541.34030      0.00000     12.25000     -0.79900     12.16500     88.09070    122.36260      2.09930     41.27030      2.60880      6.03780      7.85290      2.68820      0.12050    128.69930    141.52840
    680.00000   1438.13790   1443.97390    541.25890      0.00000     12.25000     -0.53310     12.02280     88.55630    122.14450      2.11580     41.24030      2.54050      6.08750      7.91510      2.67790      0.10410    130.27480    142.55320
    680.10000   1447.94070   1443.76970    541.18100      0.00000     12.25000     -0.21620     11.98180     89.07660    122.23300      2.14170     42.05650      2.49880      6.09630      7.93350      2.70240      0.09210    131.81240    143.17410
    680.20000   1541.09810   1443.36850    541.03250      0.00000     12.25000      0.35130     12.19540     91.82290    123.78750      2.17140     44.56830      2.43990      6.03960      7.87860      2.83540      0.07500    132.86590    143.49360
    680.30000   1537.82630   1443.16910    540.95940      0.00000     12.25000      0.47160     12.16600     92.68700    126.00610      2.16910     45.72700      2.41930      5.95790      7.78630      2.90280      0.06750    137.05150    143.64680
    680.40000   1459.41890   1442.96840    540.88490      0.00000     12.25000      0.44220     11.89760     92.52180    127.90820      2.15690     45.50170      2.35330      5.86310      7.67330      2.96070      0.05760    141.20860    143.70390
    680.50000   1494.94480   1442.76540    540.80830      0.00000     12.25000      0.27330     11.90380     92.23060    129.10520      2.13270     47.01440      2.28680      5.75950      7.54460      2.97660      0.04880    149.32350    143.63680
    680.60000   1443.92380   1442.35100    540.64650      0.00000     12.25000     -0.26380     11.89700     92.22450    130.53670      2.10130     47.33970      2.25980      5.51910      7.23210      2.90280      0.03840    152.08540    143.35280
    680.70000   1422.89550   1442.14030    540.56220      0.00000     12.25000     -0.63210     11.83110     92.10150    130.51540      2.09830     47.78960      2.15340      5.38540      7.05960      2.84980      0.03610    153.12940    142.74890
    680.80000   1471.60250   1441.92870    540.47700      0.00000     12.25000     -1.02740     11.81270     92.46750    129.86600      2.10640     48.12610      2.13010      5.27910      6.91560      2.82200      0.03270    154.19750    141.77690
    680.90000   1495.23770   1441.50390    540.30490      0.00000     12.25000     -1.87040     11.94010     92.46660    128.18370      2.12240     49.77410      2.20810      5.04810      6.59370      2.84870      0.02590    148.29900    140.57870
    681.00000   1473.03260   1441.29100    540.21830      0.00000     12.25000     -2.29750     12.00430     91.85590    127.69670      2.12490     48.06080      2.13370      4.95590      6.46390      2.87280      0.02380    141.05670    138.95860
    681.10000   1437.76590   1441.07750    540.13100      0.00000     12.25000     -2.65270     12.03860     91.46430    127.70160      2.12370     47.24510      2.15610      4.85990      6.32790      2.88120      0.02420    138.23760    136.97010
