~Version
 VERS.        2.0                                          :CWLS Log ASCII Standard - Version 2.0
 WRAP.        NO                                           :One data record per depth sample.
~Well
#MNEM.UNIT      VALUE                    DESCRIPTION
#---------      ----------               -----------
 STRT.M       272.00000                                                                                      :START DEPTH
 STOP.M       1226.40000                                                                                     :STOP DEPTH
 STEP.M       0.10000                                                                                        :STEP
 NULL.        -999.25000                                                                                     :NULL VALUE
 COMP.                                                                                                       :Oil Company
 WELL.        INDARA-1                                                                                       :Non unique well name
  FLD.        N-INDR                                                                                         :Field name
  LOC.        83.629417, 26.008328                                                                           :Location
 PROV.                                                                                                       :Province
 SRVC.                                                                                                       :Service
 DATE.        2013-11-29                                                                                     :Date unloaded
  UWI.        N-INDR-1                                                                                       :Unique well id
~Curve
#MNEM.UNIT    VALUE                                        :DESCRIPTION
#----.----    ---------------                              :-------------------
 DEPT.M       00 001 00 00                                 :Depth Index
 TENS.LBS                                                  :
 BHVT.FT3                                                  :
 AHVT.FT3                                                  :
  MMK.00                                                   :
   BS.IN                                                   :
   SP.MV                                                   :
 CALI.IN                                                   :
 GRTC.API                                                  :
   GR.API                                                  :
 RHOB.G/CC                                                 :
 NPHI.PU                                                   :
 MSFL.OHMM                                                 :
  LLS.OHMM                                                 :
  LLD.OHMM                                                 :
   PE.00                                                   :
 DRHO.G/CC                                                 :
GR_DT.API                                                  :
  DTC.00                                                   :
~A       TENS         BHVT         AHVT          MMK           BS           SP         CALI         GRTC           GR         RHOB         NPHI         MSFL          LLS          LLD           PE         DRHO        GR_DT          DTC
# ...
    559.10000   1264.44570   1772.03500    668.84880      0.00000     12.25000     24.12120     12.04160     66.13570    103.34480      2.03070     40.83100      1.61480     11.78890     17.19600      2.35250     -0.00660    116.48430    167.31230
    559.20000   1275.45180   1771.63650    668.70290      0.00000     12.25000     24.13280     12.02470     64.27030     98.58140      2.01540     41.29400      1.70580     11.52800     16.71510      2.25390     -0.00600    113.44710    168.08870
    559.30000   1302.36540   1771.43700    668.62980      0.00000     12.25000     24.10430     12.03510     64.70500     99.84400      2.01720     41.22400      1.82520     11.42660     16.46860      2.25720     -0.00270    114.30130    168.47850
    559.40000   1290.71440   1771.23730    668.55640      0.00000     12.25000     24.05080     12.05600     66.64080    102.96770      2.02210     40.90790      1.88490     11.35550     16.23110      2.28720      0.00090    114.50060    168.43800
    559.50000   1301.20870   1770.83760    668.40940      0.00000     12.25000     23.98150     12.14410     72.67130    112.49460      2.04270     39.36960      1.97720     11.20610     15.79410      2.41370      0.00470    119.33160    168.01830
    559.60000   1288.49330   1770.63780    668.33580      0.00000     12.25000     23.87520     12.12130     75.64720    116.16760      2.04910     38.66530      1.92230     11.11990     15.55570      2.47580      0.00360    121.66640    167.16680
    559.70000   1289.23100   1770.43800    668.26230      0.00000     12.25000     23.77080     12.09930     77.68970    118.22550      2.05430     38.16000      1.85960     11.04910     15.36540      2.51600      0.00180    123.94430    166.05330
    559.80000   1295.30330   1770.23820    668.18870      0.00000     12.25000     23.66410     12.09580     78.59850    117.60240      2.05460     39.91610      1.79890     10.95260     15.14340      2.52130      0.00030    126.27910    164.88230
    559.90000   1280.00050   1769.83850    668.04170      0.00000     12.25000     23.35820     12.12960     78.13140    113.11770      2.05440     41.05880      1.79950     10.70200     14.66640      2.45740      0.00030    126.01330    163.82640
    560.00000   1294.11940   1769.63870    667.96820      0.00000     12.25000     23.20790     12.16980     76.43120    109.70700      2.05340     39.30280      1.81220     10.52630     14.37030      2.42280      0.00030    124.33340    162.97690
    560.10000   1280.24660   1769.43870    667.89460      0.00000     12.25000     23.05530     12.17040     73.73390    105.77170      2.05230     39.56280      1.81550     10.35380     14.10110      2.39910      0.00000    121.45760    162.34970
    560.20000   1277.50010   1769.03870    667.74730      0.00000     12.25000     22.80490     12.18870     68.79380     99.74560      2.04540     39.22580      1.82010     10.06820     13.68050      2.35190     -0.00130    114.86130    161.92470
    560.30000   1278.25160   1768.83840    667.67330      0.00000     12.25000     22.71130     12.18350     66.21170     98.53220      2.04200     39.53090      1.82650      9.96210     13.52280      2.32540     -0.00080    113.18140    161.70020
    560.40000   1274.78670   1768.63780    667.59900      0.00000     12.25000     22.64690     12.17510     63.54790     98.61580      2.04000     38.69280      1.88160      9.89270     13.43450      2.30070     -0.00010    112.41260    161.46600
    560.50000   1267.17920   1768.23660    667.45040      0.00000     12.25000     22.65940     12.08580     60.48650    100.01120      2.04300     39.93010      2.77050      9.99480     13.64910      2.28300      0.00110    113.23830    160.36090
    560.60000   1302.95120   1768.03600    667.37610      0.00000     12.25000     22.64420     12.00740     60.67790    100.45070      2.04500     42.46060      3.27880     10.12440     13.83040      2.28630      0.00030    114.00710    157.47040
    560.70000   1279.77440   1767.83560    667.30190      0.00000     12.25000     22.58340     11.97750     61.23550    100.69500      2.04500     42.86650      3.83820     10.51380     14.35420      2.29330     -0.00040    115.82940    152.30100
    560.80000   1288.18020   1767.43410    667.15310      0.00000     12.25000     22.05700     11.96500     63.35500    100.66880      2.04180     39.56920      5.49520     11.42050     15.67770      2.33940     -0.00030    119.84410    145.99760
    560.90000   1279.76790   1767.23240    667.07780      0.00000     12.25000     21.49250     11.88700     64.38040     99.67180      2.05120     37.19530      6.55280     12.03090     16.42510      2.38570      0.00210    119.90110    139.62120
    561.00000   1277.25400   1767.03020    667.00180      0.00000     12.25000     20.81000     11.89640     65.06870     98.89290      2.07420     35.96860      6.14260     12.74390     17.29550      2.46560      0.00500    118.16420    134.57040
    561.10000   1309.92690   1766.62410    666.84840      0.00000     12.25000     18.95750     11.96480     65.39010     98.08130      2.16340     30.98140      5.69530     13.62760     18.45590      2.66950      0.01330    110.93200    130.88430
    561.20000   1279.02950   1766.42020    666.77080      0.00000     12.25000     17.93800     11.89770     65.37070     97.55650      2.21720     29.22730      4.68690     13.76800     18.65740      2.77510      0.01640    111.78620    128.82620
    561.30000   1285.71300   1766.21590    666.69280      0.00000     12.25000     16.90970     11.97970     65.32150     96.93110      2.26990     28.52590      3.54340     13.84990     18.67440      2.86350      0.01780    114.71890    127.69670
    561.40000   1293.24780   1766.01170    666.61490      0.00000     12.25000     15.87190     12.11360     66.08930     97.41530      2.30860     28.95680      3.49050     13.57270     18.22960      2.95260      0.01600    119.84410    127.62090
    561.50000   1277.56640   1765.60300    666.45890      0.00000     12.25000     14.09450     12.29880     70.27710    106.01780      2.31980     28.58950      3.06810     12.15360     16.47390      3.11270      0.00380    119.95800    128.83980
    561.60000   1272.23960   1765.39880    666.38100      0.00000     12.25000     13.33630     12.27800     72.77180    113.70570      2.28940     29.97140      2.90020     11.52010     15.66500      3.15320     -0.00280    120.49900    131.90290
    561.70000   1279.21590   1765.19470    666.30330      0.00000     12.25000     12.68260     12.24100     75.13290    118.98520      2.24960     33.29500      2.79990     10.92530     14.86780      3.14330     -0.00790    124.17210    136.50470
    561.80000   1302.55180   1764.78610    666.14730      0.00000     12.25000     11.56930     12.22480     80.53570    124.47500      2.19090     38.77310      2.79930     10.09710     13.74790      3.06380     -0.00650    135.45700    141.71030
    561.90000   1308.66370   1764.58180    666.06930      0.00000     12.25000     11.09180     12.22270     82.57080    125.78470      2.17950     40.19970      2.79200      9.76290     13.27450      3.05170     -0.00250    138.56060    146.48190
    562.00000   1302.63820   1764.37760    665.99140      0.00000     12.25000     10.71270     12.21120     83.44980    128.04760      2.17750     42.37580      2.72540      9.56240     12.92510      3.07710      0.00280    139.13000    150.09300
    562.10000   1270.78360   1763.96890    665.83530      0.00000     12.25000     10.14720     12.21530     84.68640    134.19290      2.17780     43.35400      2.67040      9.40920     12.59090      3.14610      0.00950    137.04200    152.43540
    562.20000   1276.00380   1763.76390    665.75670      0.00000     12.25000      9.98990     12.34230     85.50290    135.44370      2.18000     45.12160      2.72770      9.37690     12.49330      3.16280      0.01200    138.06700    153.83780
    562.30000   1296.60670   1763.55810    665.67720      0.00000     12.25000      9.90270     12.36170     85.22220    135.16620      2.18050     46.06050      2.85850      9.36390     12.42280      3.16390      0.01400    139.86090    154.82550
